[{"locationScore":9,"price":605,"nights":23,"name":"Liz Onnia Hotel","qualityScore":8,"lon":149.05650329589844,"maxOccupancy":3,"lat":-35.26499557495117},{"locationScore":7,"price":420,"nights":8,"name":"Art Major Apartments","qualityScore":2,"lon":149.02020263671875,"maxOccupancy":6,"lat":-35.179168701171875},{"locationScore":4,"price":310,"nights":17,"name":"Al B. Tross Motel","qualityScore":3,"lon":149.07566833496094,"maxOccupancy":5,"lat":-35.22688674926758},{"locationScore":8,"price":415,"nights":4,"name":"Pepe C. Cola AirBnB","qualityScore":2,"lon":149.016357421875,"maxOccupancy":3,"lat":-35.36833190917969},{"locationScore":3,"price":335,"nights":20,"name":"Juan De Hattatime Hotel","qualityScore":8,"lon":149.07972717285156,"maxOccupancy":1,"lat":-35.23548126220703},{"locationScore":4,"price":245,"nights":3,"name":"Ilene Left Resort","qualityScore":1,"lon":149.04612731933594,"maxOccupancy":4,"lat":-35.13460922241211},{"locationScore":2,"price":405,"nights":24,"name":"Robin Meeblind AirBnB","qualityScore":10,"lon":149.01463317871094,"maxOccupancy":5,"lat":-35.2932014465332},{"locationScore":4,"price":285,"nights":8,"name":"Molly Kuehl AirBnB","qualityScore":2,"lon":149.08529663085938,"maxOccupancy":5,"lat":-35.320316314697266},{"locationScore":1,"price":280,"nights":2,"name":"Carrie Oakey AirBnB","qualityScore":6,"lon":149.00059509277344,"maxOccupancy":6,"lat":-35.13448715209961},{"locationScore":8,"price":509,"nights":4,"name":"Evan Lee Arps Resort","qualityScore":4,"lon":149.0841064453125,"maxOccupancy":6,"lat":-35.214481353759766},{"locationScore":7,"price":390,"nights":23,"name":"Andy Structible Resort","qualityScore":2,"lon":149.03076171875,"maxOccupancy":4,"lat":-35.30561065673828},{"locationScore":6,"price":465,"nights":28,"name":"Chad Terbocks Motel","qualityScore":6,"lon":149.0001678466797,"maxOccupancy":5,"lat":-35.19619369506836},{"locationScore":3,"price":245,"nights":12,"name":"Ulee Daway Hotel","qualityScore":2,"lon":149.01243591308594,"maxOccupancy":5,"lat":-35.14751434326172},{"locationScore":6,"price":355,"nights":26,"name":"Brock Lee Apartments","qualityScore":1,"lon":149.06304931640625,"maxOccupancy":6,"lat":-35.39533233642578},{"locationScore":4,"price":310,"nights":4,"name":"Harry R. M. Pitts Motel","qualityScore":3,"lon":149.021728515625,"maxOccupancy":5,"lat":-35.2201042175293},{"locationScore":1,"price":280,"nights":4,"name":"Ben Thair Resort","qualityScore":6,"lon":149.08033752441406,"maxOccupancy":6,"lat":-35.32607650756836},{"locationScore":5,"price":459,"nights":15,"name":"Sarah Doctorinthehouse Apartments","qualityScore":8,"lon":149.06900024414062,"maxOccupancy":4,"lat":-35.38904571533203},{"locationScore":4,"price":300,"nights":21,"name":"Annie Matter Hotel","qualityScore":5,"lon":149.07984924316406,"maxOccupancy":1,"lat":-35.283668518066406},{"locationScore":4,"price":400,"nights":21,"name":"Marcus Absent Resort","qualityScore":6,"lon":149.0606689453125,"maxOccupancy":6,"lat":-35.17632293701172},{"locationScore":4,"price":459,"nights":21,"name":"Ben Thair Apartments","qualityScore":9,"lon":149.01837158203125,"maxOccupancy":5,"lat":-35.21828842163086},{"locationScore":9,"price":605,"nights":18,"name":"Al Dente Apartments","qualityScore":8,"lon":149.09718322753906,"maxOccupancy":3,"lat":-35.33712387084961},{"locationScore":9,"price":635,"nights":18,"name":"Ryan Carnation Hotel","qualityScore":8,"lon":149.02256774902344,"maxOccupancy":5,"lat":-35.305084228515625},{"locationScore":7,"price":530,"nights":14,"name":"Val Crow Motel","qualityScore":7,"lon":149.0367431640625,"maxOccupancy":5,"lat":-35.25041580200195},{"locationScore":1,"price":315,"nights":4,"name":"Andy Friese Apartments","qualityScore":8,"lon":149.06793212890625,"maxOccupancy":5,"lat":-35.22241973876953},{"locationScore":9,"price":655,"nights":15,"name":"Billy Rubin Motel","qualityScore":10,"lon":149.04237365722656,"maxOccupancy":3,"lat":-35.10554504394531},{"locationScore":10,"price":505,"nights":9,"name":"Dusty Storm Motel","qualityScore":3,"lon":149.0118408203125,"maxOccupancy":2,"lat":-35.20366287231445},{"locationScore":10,"price":595,"nights":15,"name":"Lynn O. Liam Apartments","qualityScore":6,"lon":149.07601928710938,"maxOccupancy":3,"lat":-35.32428741455078},{"locationScore":8,"price":525,"nights":27,"name":"Skip Stone Resort","qualityScore":7,"lon":149.0210418701172,"maxOccupancy":2,"lat":-35.390010833740234},{"locationScore":3,"price":355,"nights":10,"name":"Ty Coon AirBnB","qualityScore":7,"lon":149.03807067871094,"maxOccupancy":4,"lat":-35.15690994262695},{"locationScore":4,"price":295,"nights":2,"name":"Stan Still AirBnB","qualityScore":3,"lon":149.03797912597656,"maxOccupancy":4,"lat":-35.21244430541992},{"locationScore":4,"price":459,"nights":28,"name":"Ima B. Leever Motel","qualityScore":9,"lon":149.00733947753906,"maxOccupancy":5,"lat":-35.38591003417969},{"locationScore":7,"price":400,"nights":14,"name":"Candice B. Fureal Motel","qualityScore":3,"lon":149.00355529785156,"maxOccupancy":3,"lat":-35.20399475097656},{"locationScore":6,"price":320,"nights":26,"name":"Winnie Bago Resort","qualityScore":2,"lon":149.06353759765625,"maxOccupancy":2,"lat":-35.229984283447266},{"locationScore":3,"price":235,"nights":1,"name":"Marco DeStinkshun AirBnB","qualityScore":4,"lon":149.026123046875,"maxOccupancy":1,"lat":-35.38444137573242},{"locationScore":9,"price":415,"nights":23,"name":"Leo Tarred AirBnB","qualityScore":1,"lon":149.02931213378906,"maxOccupancy":2,"lat":-35.28273010253906},{"locationScore":8,"price":430,"nights":4,"name":"Juan Fortharoad Resort","qualityScore":2,"lon":149.04129028320312,"maxOccupancy":4,"lat":-35.38153839111328},{"locationScore":8,"price":595,"nights":2,"name":"Doll R. Bill Apartments","qualityScore":8,"lon":149.09413146972656,"maxOccupancy":5,"lat":-35.276371002197266},{"locationScore":8,"price":470,"nights":25,"name":"Cal Seeium Hotel","qualityScore":3,"lon":149.0437469482422,"maxOccupancy":5,"lat":-35.22593688964844},{"locationScore":4,"price":200,"nights":3,"name":"Kurt Remarque AirBnB","qualityScore":1,"lon":149.0268096923828,"maxOccupancy":1,"lat":-35.21166229248047},{"locationScore":7,"price":565,"nights":24,"name":"Kenney C. Strait Apartments","qualityScore":9,"lon":149.08642578125,"maxOccupancy":4,"lat":-35.23682403564453},{"locationScore":10,"price":635,"nights":19,"name":"Paige Turner Motel","qualityScore":7,"lon":149.07887268066406,"maxOccupancy":4,"lat":-35.36375045776367},{"locationScore":4,"price":415,"nights":17,"name":"Morey Bund AirBnB","qualityScore":9,"lon":149.01394653320312,"maxOccupancy":2,"lat":-35.123268127441406},{"locationScore":2,"price":405,"nights":4,"name":"Mitch Again Resort","qualityScore":10,"lon":149.09390258789062,"maxOccupancy":5,"lat":-35.23770523071289},{"locationScore":6,"price":420,"nights":13,"name":"Mel Practiss Resort","qualityScore":6,"lon":149.03900146484375,"maxOccupancy":2,"lat":-35.21426010131836},{"locationScore":2,"price":375,"nights":4,"name":"Rob A. Bank Hotel","qualityScore":10,"lon":149.09864807128906,"maxOccupancy":3,"lat":-35.39795684814453},{"locationScore":2,"price":340,"nights":6,"name":"Rose Bush Resort","qualityScore":8,"lon":149.0325469970703,"maxOccupancy":4,"lat":-35.18276596069336},{"locationScore":6,"price":540,"nights":20,"name":"Elle O'Quent Hotel","qualityScore":9,"lon":149.07200622558594,"maxOccupancy":5,"lat":-35.12228775024414},{"locationScore":4,"price":325,"nights":20,"name":"Brooke Waters AirBnB","qualityScore":6,"lon":149.01675415039062,"maxOccupancy":1,"lat":-35.356563568115234},{"locationScore":5,"price":240,"nights":13,"name":"Liz Onnia Motel","qualityScore":1,"lon":149.01708984375,"maxOccupancy":1,"lat":-35.211036682128906},{"locationScore":2,"price":170,"nights":14,"name":"Aaron Thetires Apartments","qualityScore":3,"lon":149.08743286132812,"maxOccupancy":1,"lat":-35.37501907348633},{"locationScore":6,"price":320,"nights":17,"name":"Cole Durkee Motel","qualityScore":2,"lon":149.02493286132812,"maxOccupancy":2,"lat":-35.25798416137695},{"locationScore":4,"price":470,"nights":19,"name":"Don Thatt Resort","qualityScore":10,"lon":149.0282745361328,"maxOccupancy":4,"lat":-35.11570739746094},{"locationScore":7,"price":360,"nights":13,"name":"Joaquin DeFlores AirBnB","qualityScore":2,"lon":149.01162719726562,"maxOccupancy":2,"lat":-35.17705154418945},{"locationScore":10,"price":645,"nights":2,"name":"Sal Ami Hotel","qualityScore":8,"lon":149.05458068847656,"maxOccupancy":3,"lat":-35.211605072021484},{"locationScore":3,"price":310,"nights":10,"name":"Lou Zar Apartments","qualityScore":4,"lon":149.02740478515625,"maxOccupancy":6,"lat":-35.1849250793457},{"locationScore":10,"price":710,"nights":22,"name":"Art Painter Hotel","qualityScore":10,"lon":149.02159118652344,"maxOccupancy":4,"lat":-35.15138626098633},{"locationScore":7,"price":580,"nights":11,"name":"Megan Bacon Hotel","qualityScore":9,"lon":149.0425567626953,"maxOccupancy":5,"lat":-35.29774475097656},{"locationScore":5,"price":375,"nights":14,"name":"Lou Zar AirBnB","qualityScore":4,"lon":149.0166778564453,"maxOccupancy":5,"lat":-35.139713287353516},{"locationScore":1,"price":190,"nights":21,"name":"Nick Ovtime Apartments","qualityScore":3,"lon":149.06011962890625,"maxOccupancy":5,"lat":-35.20539474487305},{"locationScore":8,"price":459,"nights":13,"name":"Chris Ko Motel","qualityScore":5,"lon":149.03677368164062,"maxOccupancy":1,"lat":-35.11652755737305},{"locationScore":8,"price":585,"nights":13,"name":"Mitch Again Hotel","qualityScore":7,"lon":149.0406951904297,"maxOccupancy":6,"lat":-35.2935905456543},{"locationScore":3,"price":400,"nights":14,"name":"Phil A. Delphia AirBnB","qualityScore":10,"lon":149.0192108154297,"maxOccupancy":2,"lat":-35.28044509887695},{"locationScore":7,"price":620,"nights":24,"name":"Rich Feller Hotel","qualityScore":10,"lon":149.0184326171875,"maxOccupancy":6,"lat":-35.15568161010742},{"locationScore":7,"price":475,"nights":21,"name":"Harry Armand Bach AirBnB","qualityScore":6,"lon":149.08526611328125,"maxOccupancy":3,"lat":-35.22187423706055},{"locationScore":3,"price":420,"nights":5,"name":"Olive Yew Hotel","qualityScore":9,"lon":149.0731964111328,"maxOccupancy":5,"lat":-35.166465759277344},{"locationScore":9,"price":655,"nights":4,"name":"Tom A. Toe Motel","qualityScore":10,"lon":149.00367736816406,"maxOccupancy":3,"lat":-35.10577392578125},{"locationScore":8,"price":450,"nights":26,"name":"Theresa Green Motel","qualityScore":4,"lon":149.07435607910156,"maxOccupancy":2,"lat":-35.39201736450195},{"locationScore":6,"price":355,"nights":15,"name":"Cy Kosis Hotel","qualityScore":4,"lon":149.05120849609375,"maxOccupancy":1,"lat":-35.19208908081055},{"locationScore":3,"price":355,"nights":14,"name":"Aretha Holly Resort","qualityScore":7,"lon":149.0189666748047,"maxOccupancy":4,"lat":-35.144046783447266},{"locationScore":9,"price":400,"nights":5,"name":"Tad Pohl Apartments","qualityScore":1,"lon":149.03268432617188,"maxOccupancy":1,"lat":-35.35051345825195},{"locationScore":8,"price":605,"nights":23,"name":"Barb E. Dahl Hotel","qualityScore":9,"lon":149.07212829589844,"maxOccupancy":4,"lat":-35.141273498535156},{"locationScore":10,"price":535,"nights":1,"name":"Justin Credible Motel","qualityScore":3,"lon":149.0230255126953,"maxOccupancy":4,"lat":-35.20973205566406},{"locationScore":10,"price":650,"nights":26,"name":"Rich Guy AirBnB","qualityScore":7,"lon":149.08250427246094,"maxOccupancy":5,"lat":-35.374942779541016},{"locationScore":2,"price":270,"nights":10,"name":"Dusty Carr Hotel","qualityScore":7,"lon":149.04556274414062,"maxOccupancy":1,"lat":-35.22514724731445},{"locationScore":8,"price":509,"nights":9,"name":"Tina See Resort","qualityScore":4,"lon":149.01168823242188,"maxOccupancy":6,"lat":-35.164390563964844},{"locationScore":10,"price":480,"nights":13,"name":"Walter Melon Resort","qualityScore":2,"lon":149.0745849609375,"maxOccupancy":2,"lat":-35.146240234375},{"locationScore":8,"price":459,"nights":1,"name":"Nick L. Andime Resort","qualityScore":5,"lon":149.0106964111328,"maxOccupancy":1,"lat":-35.32163619995117},{"locationScore":5,"price":285,"nights":13,"name":"Colleen Cardd Hotel","qualityScore":1,"lon":149.04019165039062,"maxOccupancy":4,"lat":-35.27783203125},{"locationScore":4,"price":470,"nights":28,"name":"Lily Livard Hotel","qualityScore":10,"lon":149.02224731445312,"maxOccupancy":4,"lat":-35.325477600097656},{"locationScore":9,"price":495,"nights":13,"name":"Bill Loney Apartments","qualityScore":3,"lon":149.05210876464844,"maxOccupancy":4,"lat":-35.25236511230469},{"locationScore":1,"price":204,"nights":26,"name":"Chip Munk Resort","qualityScore":6,"lon":149.01455688476562,"maxOccupancy":1,"lat":-35.275875091552734},{"locationScore":1,"price":229,"nights":8,"name":"R. M. Pitt Apartments","qualityScore":7,"lon":149.00665283203125,"maxOccupancy":1,"lat":-35.27495574951172},{"locationScore":5,"price":450,"nights":3,"name":"Jacques Strap Motel","qualityScore":7,"lon":149.0804443359375,"maxOccupancy":5,"lat":-35.21220016479492},{"locationScore":5,"price":495,"nights":22,"name":"Zoe Mudgett Hertz Motel","qualityScore":10,"lon":149.05760192871094,"maxOccupancy":3,"lat":-35.34508514404297},{"locationScore":3,"price":260,"nights":25,"name":"Allen Rench Motel","qualityScore":5,"lon":149.0255889892578,"maxOccupancy":1,"lat":-35.229801177978516},{"locationScore":3,"price":360,"nights":16,"name":"Lily Pond AirBnB","qualityScore":9,"lon":149.01654052734375,"maxOccupancy":1,"lat":-35.315269470214844},{"locationScore":4,"price":350,"nights":26,"name":"Bess Twishes Apartments","qualityScore":4,"lon":149.07666015625,"maxOccupancy":6,"lat":-35.36124038696289},{"locationScore":8,"price":550,"nights":19,"name":"Lily Pond Resort","qualityScore":8,"lon":149.04722595214844,"maxOccupancy":2,"lat":-35.15102767944336},{"locationScore":3,"price":385,"nights":4,"name":"Lynn Meabuck Motel","qualityScore":10,"lon":149.02696228027344,"maxOccupancy":1,"lat":-35.13491439819336},{"locationScore":2,"price":220,"nights":3,"name":"Perry Mecium Motel","qualityScore":5,"lon":149.0777587890625,"maxOccupancy":1,"lat":-35.17936325073242},{"locationScore":1,"price":229,"nights":21,"name":"Rip Torn Apartments","qualityScore":4,"lon":149.01263427734375,"maxOccupancy":6,"lat":-35.318973541259766},{"locationScore":8,"price":610,"nights":8,"name":"Chris Ko AirBnB","qualityScore":8,"lon":149.0695343017578,"maxOccupancy":6,"lat":-35.23485565185547},{"locationScore":8,"price":484,"nights":18,"name":"Joaquin DeFlores Resort","qualityScore":3,"lon":149.06065368652344,"maxOccupancy":6,"lat":-35.12954330444336},{"locationScore":7,"price":620,"nights":22,"name":"Harmon Ikka Motel","qualityScore":10,"lon":149.06472778320312,"maxOccupancy":6,"lat":-35.26969909667969},{"locationScore":8,"price":585,"nights":17,"name":"Bo D. Satva Resort","qualityScore":10,"lon":149.06997680664062,"maxOccupancy":1,"lat":-35.263580322265625},{"locationScore":3,"price":185,"nights":21,"name":"Sue Case Hotel","qualityScore":2,"lon":149.01547241210938,"maxOccupancy":1,"lat":-35.236751556396484},{"locationScore":6,"price":450,"nights":28,"name":"Bea Sting Apartments","qualityScore":6,"lon":149.0414276123047,"maxOccupancy":4,"lat":-35.3504753112793},{"locationScore":2,"price":315,"nights":27,"name":"Skip Stone Resort","qualityScore":7,"lon":149.0487518310547,"maxOccupancy":4,"lat":-35.32496643066406},{"locationScore":1,"price":240,"nights":5,"name":"Daisy Picking Hotel","qualityScore":5,"lon":149.05799865722656,"maxOccupancy":5,"lat":-35.29571533203125},{"locationScore":3,"price":255,"nights":9,"name":"Doris Schutt Motel","qualityScore":3,"lon":149.0420379638672,"maxOccupancy":4,"lat":-35.21953201293945},{"locationScore":4,"price":250,"nights":21,"name":"Iona Ford Resort","qualityScore":3,"lon":149.05484008789062,"maxOccupancy":1,"lat":-35.354427337646484},{"locationScore":4,"price":345,"nights":16,"name":"Brandy Anne Koch AirBnB","qualityScore":5,"lon":149.03872680664062,"maxOccupancy":4,"lat":-35.361515045166016},{"locationScore":8,"price":630,"nights":30,"name":"Armand Hammer Apartments","qualityScore":10,"lon":149.0317840576172,"maxOccupancy":4,"lat":-35.12576675415039},{"locationScore":7,"price":545,"nights":22,"name":"Justin Case AirBnB","qualityScore":7,"lon":149.08888244628906,"maxOccupancy":6,"lat":-35.2801513671875},{"locationScore":7,"price":520,"nights":19,"name":"Buddy Booth Resort","qualityScore":9,"lon":149.02520751953125,"maxOccupancy":1,"lat":-35.274131774902344},{"locationScore":6,"price":340,"nights":15,"name":"Owen Money Apartments","qualityScore":1,"lon":149.06097412109375,"maxOccupancy":5,"lat":-35.303340911865234},{"locationScore":7,"price":420,"nights":4,"name":"Robin Banks Resort","qualityScore":5,"lon":149.00390625,"maxOccupancy":1,"lat":-35.3648681640625},{"locationScore":5,"price":385,"nights":14,"name":"Ben Lyon Resort","qualityScore":5,"lon":149.05331420898438,"maxOccupancy":4,"lat":-35.331199645996094},{"locationScore":7,"price":375,"nights":10,"name":"Mandy Lifeboats AirBnB","qualityScore":2,"lon":149.0363311767578,"maxOccupancy":3,"lat":-35.138946533203125},{"locationScore":8,"price":535,"nights":2,"name":"Moe DeLawn Hotel","qualityScore":5,"lon":149.00421142578125,"maxOccupancy":6,"lat":-35.11668014526367},{"locationScore":8,"price":484,"nights":22,"name":"Cal Efornia Resort","qualityScore":6,"lon":149.01190185546875,"maxOccupancy":1,"lat":-35.121829986572266},{"locationScore":8,"price":515,"nights":14,"name":"Marlon Fisher Hotel","qualityScore":6,"lon":149.01260375976562,"maxOccupancy":3,"lat":-35.21894836425781},{"locationScore":3,"price":375,"nights":10,"name":"Braxton Hicks AirBnB","qualityScore":9,"lon":149.04649353027344,"maxOccupancy":2,"lat":-35.193626403808594},{"locationScore":7,"price":470,"nights":3,"name":"Penny Bunn Hotel","qualityScore":7,"lon":149.03514099121094,"maxOccupancy":1,"lat":-35.3553352355957},{"locationScore":3,"price":430,"nights":3,"name":"C. Worthy Hotel","qualityScore":10,"lon":149.08836364746094,"maxOccupancy":4,"lat":-35.291595458984375},{"locationScore":5,"price":420,"nights":3,"name":"Eddie Bull Resort","qualityScore":7,"lon":149.01918029785156,"maxOccupancy":3,"lat":-35.29920959472656},{"locationScore":6,"price":440,"nights":11,"name":"Nick Ovtime Apartments","qualityScore":5,"lon":149.06454467773438,"maxOccupancy":5,"lat":-35.29554748535156},{"locationScore":6,"price":455,"nights":16,"name":"Jack Dupp Motel","qualityScore":8,"lon":149.08798217773438,"maxOccupancy":1,"lat":-35.19538497924805},{"locationScore":5,"price":270,"nights":22,"name":"Morey Bund Apartments","qualityScore":1,"lon":149.01773071289062,"maxOccupancy":3,"lat":-35.352081298828125},{"locationScore":9,"price":445,"nights":2,"name":"Stan Dup Motel","qualityScore":1,"lon":149.0007781982422,"maxOccupancy":4,"lat":-35.170257568359375},{"locationScore":1,"price":365,"nights":6,"name":"Freida Convict Motel","qualityScore":10,"lon":149.04710388183594,"maxOccupancy":5,"lat":-35.33161544799805},{"locationScore":3,"price":360,"nights":1,"name":"Ima Lytle Teapot Motel","qualityScore":9,"lon":149.09141540527344,"maxOccupancy":1,"lat":-35.173152923583984},{"locationScore":1,"price":229,"nights":5,"name":"Lily Livard Motel","qualityScore":7,"lon":149.00027465820312,"maxOccupancy":1,"lat":-35.29203796386719},{"locationScore":2,"price":190,"nights":8,"name":"I. Ball Resort","qualityScore":2,"lon":149.0234375,"maxOccupancy":4,"lat":-35.21261215209961},{"locationScore":7,"price":595,"nights":6,"name":"M. T. Toombe AirBnB","qualityScore":9,"lon":149.02008056640625,"maxOccupancy":6,"lat":-35.34348678588867},{"locationScore":4,"price":390,"nights":23,"name":"I. P. Freely Resort","qualityScore":8,"lon":149.04612731933594,"maxOccupancy":2,"lat":-35.22557067871094},{"locationScore":6,"price":530,"nights":18,"name":"Brandy Anne Koch Resort","qualityScore":8,"lon":149.03634643554688,"maxOccupancy":6,"lat":-35.23513412475586},{"locationScore":5,"price":470,"nights":16,"name":"Rocky Rhoades Hotel","qualityScore":9,"lon":149.04345703125,"maxOccupancy":3,"lat":-35.253536224365234},{"locationScore":2,"price":420,"nights":11,"name":"Jaqueline Hyde Motel","qualityScore":10,"lon":149.0524444580078,"maxOccupancy":6,"lat":-35.232913970947266},{"locationScore":3,"price":190,"nights":2,"name":"Peg Legge AirBnB","qualityScore":1,"lon":149.0895233154297,"maxOccupancy":3,"lat":-35.338558197021484},{"locationScore":3,"price":285,"nights":7,"name":"Jacklyn Hyde AirBnB","qualityScore":3,"lon":149.04319763183594,"maxOccupancy":6,"lat":-35.384098052978516},{"locationScore":4,"price":400,"nights":28,"name":"Thor Luther Motel","qualityScore":9,"lon":149.05015563964844,"maxOccupancy":1,"lat":-35.27462387084961},{"locationScore":4,"price":440,"nights":19,"name":"Chip Munk Resort","qualityScore":10,"lon":149.0740509033203,"maxOccupancy":2,"lat":-35.238773345947266},{"locationScore":9,"price":580,"nights":30,"name":"Cy Burns AirBnB","qualityScore":7,"lon":149.09922790527344,"maxOccupancy":3,"lat":-35.2647590637207},{"locationScore":5,"price":409,"nights":28,"name":"Olive Hoyl Motel","qualityScore":6,"lon":149.03366088867188,"maxOccupancy":4,"lat":-35.24980545043945},{"locationScore":4,"price":275,"nights":28,"name":"Miss Alanius Apartments","qualityScore":1,"lon":149.0731964111328,"maxOccupancy":6,"lat":-35.27472686767578},{"locationScore":1,"price":210,"nights":13,"name":"Elmer Sklue Motel","qualityScore":5,"lon":149.0939178466797,"maxOccupancy":3,"lat":-35.360477447509766},{"locationScore":10,"price":660,"nights":14,"name":"Brock Lee Apartments","qualityScore":8,"lon":149.01849365234375,"maxOccupancy":4,"lat":-35.2381477355957},{"locationScore":2,"price":200,"nights":6,"name":"Barry Cade Apartments","qualityScore":3,"lon":149.07232666015625,"maxOccupancy":3,"lat":-35.285255432128906},{"locationScore":10,"price":560,"nights":10,"name":"Barry Cade Motel","qualityScore":4,"lon":149.07675170898438,"maxOccupancy":4,"lat":-35.367713928222656},{"locationScore":9,"price":645,"nights":30,"name":"Easton West Resort","qualityScore":9,"lon":149.0757598876953,"maxOccupancy":4,"lat":-35.278465270996094},{"locationScore":5,"price":465,"nights":20,"name":"Mel Practiss Motel","qualityScore":7,"lon":149.0433349609375,"maxOccupancy":6,"lat":-35.15902328491211},{"locationScore":4,"price":240,"nights":12,"name":"Ferris Wheeler AirBnB","qualityScore":2,"lon":149.04676818847656,"maxOccupancy":2,"lat":-35.1832389831543},{"locationScore":1,"price":140,"nights":28,"name":"Emerald Stone Resort","qualityScore":1,"lon":149.04229736328125,"maxOccupancy":5,"lat":-35.11212921142578},{"locationScore":3,"price":415,"nights":17,"name":"Polly Dent Resort","qualityScore":10,"lon":149.0532684326172,"maxOccupancy":3,"lat":-35.19599533081055},{"locationScore":5,"price":335,"nights":22,"name":"Alf A. Romeo Motel","qualityScore":3,"lon":149.058349609375,"maxOccupancy":4,"lat":-35.20028305053711},{"locationScore":2,"price":350,"nights":1,"name":"Rex Easley Apartments","qualityScore":9,"lon":149.00270080566406,"maxOccupancy":3,"lat":-35.303977966308594},{"locationScore":5,"price":315,"nights":1,"name":"Jim Laucher AirBnB","qualityScore":1,"lon":149.04954528808594,"maxOccupancy":6,"lat":-35.18333053588867},{"locationScore":7,"price":605,"nights":6,"name":"Anita Bathe Hotel","qualityScore":10,"lon":149.03244018554688,"maxOccupancy":5,"lat":-35.35491943359375},{"locationScore":5,"price":430,"nights":8,"name":"Doug Hole Motel","qualityScore":8,"lon":149.0449676513672,"maxOccupancy":2,"lat":-35.20432662963867},{"locationScore":2,"price":215,"nights":26,"name":"Les Plack AirBnB","qualityScore":3,"lon":149.01173400878906,"maxOccupancy":4,"lat":-35.34786605834961},{"locationScore":9,"price":605,"nights":16,"name":"Wilma Leggrowbach Apartments","qualityScore":8,"lon":149.0185089111328,"maxOccupancy":3,"lat":-35.10036087036133},{"locationScore":7,"price":405,"nights":9,"name":"Minnie Skurt Hotel","qualityScore":2,"lon":149.0489501953125,"maxOccupancy":5,"lat":-35.344932556152344},{"locationScore":6,"price":430,"nights":7,"name":"Bob Frapples AirBnB","qualityScore":7,"lon":149.0187225341797,"maxOccupancy":1,"lat":-35.24214553833008},{"locationScore":7,"price":405,"nights":3,"name":"Ilene Left Hotel","qualityScore":2,"lon":149.026123046875,"maxOccupancy":5,"lat":-35.31653594970703},{"locationScore":1,"price":265,"nights":14,"name":"Rita Story Motel","qualityScore":6,"lon":149.09010314941406,"maxOccupancy":5,"lat":-35.321346282958984},{"locationScore":9,"price":415,"nights":15,"name":"Anna Graham Motel","qualityScore":1,"lon":149.01780700683594,"maxOccupancy":2,"lat":-35.31587219238281},{"locationScore":8,"price":585,"nights":19,"name":"Hare Brain Resort","qualityScore":7,"lon":149.0699920654297,"maxOccupancy":6,"lat":-35.34224319458008},{"locationScore":10,"price":635,"nights":29,"name":"Pepe Roni Hotel","qualityScore":7,"lon":149.09878540039062,"maxOccupancy":4,"lat":-35.18901824951172},{"locationScore":7,"price":400,"nights":10,"name":"Tom Katt Hotel","qualityScore":3,"lon":149.0803680419922,"maxOccupancy":3,"lat":-35.13017654418945},{"locationScore":10,"price":540,"nights":28,"name":"Douglas S. Halfempty Hotel","qualityScore":2,"lon":149.07513427734375,"maxOccupancy":6,"lat":-35.27753448486328},{"locationScore":5,"price":425,"nights":8,"name":"Zeke N. Yeshallfind AirBnB","qualityScore":6,"lon":149.03379821777344,"maxOccupancy":5,"lat":-35.20004653930664},{"locationScore":4,"price":445,"nights":28,"name":"Ginger Rayl Apartments","qualityScore":9,"lon":149.0688934326172,"maxOccupancy":4,"lat":-35.269371032714844},{"locationScore":8,"price":470,"nights":3,"name":"Max E. Mumm AirBnB","qualityScore":3,"lon":149.07464599609375,"maxOccupancy":5,"lat":-35.131004333496094},{"locationScore":2,"price":265,"nights":8,"name":"Rusty Fender Apartments","qualityScore":5,"lon":149.03793334960938,"maxOccupancy":4,"lat":-35.34490966796875},{"locationScore":10,"price":690,"nights":30,"name":"Rory Storm Resort","qualityScore":8,"lon":149.0772247314453,"maxOccupancy":6,"lat":-35.339542388916016},{"locationScore":9,"price":465,"nights":11,"name":"Eve O'Lution Motel","qualityScore":3,"lon":149.0597686767578,"maxOccupancy":2,"lat":-35.31739807128906},{"locationScore":7,"price":435,"nights":19,"name":"Jim Shorts Resort","qualityScore":5,"lon":149.08151245117188,"maxOccupancy":2,"lat":-35.16885757446289},{"locationScore":1,"price":195,"nights":12,"name":"Owen Money Hotel","qualityScore":5,"lon":149.0714874267578,"maxOccupancy":2,"lat":-35.19768524169922},{"locationScore":1,"price":265,"nights":23,"name":"Curt Zee Motel","qualityScore":6,"lon":149.0564727783203,"maxOccupancy":5,"lat":-35.24159240722656},{"locationScore":9,"price":610,"nights":30,"name":"Art Major Motel","qualityScore":7,"lon":149.0687255859375,"maxOccupancy":5,"lat":-35.39860916137695},{"locationScore":6,"price":350,"nights":12,"name":"Joy Anna DeLight AirBnB","qualityScore":2,"lon":149.08755493164062,"maxOccupancy":4,"lat":-35.14753723144531},{"locationScore":10,"price":700,"nights":22,"name":"Will Wynn Apartments","qualityScore":9,"lon":149.00193786621094,"maxOccupancy":5,"lat":-35.31319808959961},{"locationScore":5,"price":355,"nights":23,"name":"Cal Efornia Apartments","qualityScore":5,"lon":149.03033447265625,"maxOccupancy":2,"lat":-35.209259033203125},{"locationScore":3,"price":409,"nights":8,"name":"Mark A. Roni Apartments","qualityScore":8,"lon":149.02822875976562,"maxOccupancy":6,"lat":-35.366180419921875},{"locationScore":4,"price":400,"nights":24,"name":"Manuel Labor Resort","qualityScore":9,"lon":149.0579071044922,"maxOccupancy":1,"lat":-35.25859832763672},{"locationScore":10,"price":509,"nights":7,"name":"Pearl E. Gates Apartments","qualityScore":2,"lon":149.04791259765625,"maxOccupancy":4,"lat":-35.319419860839844},{"locationScore":8,"price":535,"nights":25,"name":"Adam Zapel Motel","qualityScore":5,"lon":149.05050659179688,"maxOccupancy":6,"lat":-35.22397232055664},{"locationScore":8,"price":420,"nights":22,"name":"R. M. Pitt Motel","qualityScore":1,"lon":149.04904174804688,"maxOccupancy":5,"lat":-35.2129020690918},{"locationScore":9,"price":545,"nights":2,"name":"Faye Kinnitt AirBnB","qualityScore":5,"lon":149.07411193847656,"maxOccupancy":4,"lat":-35.176429748535156},{"locationScore":8,"price":465,"nights":27,"name":"Sarah Doctorinthehouse Hotel","qualityScore":4,"lon":149.0928955078125,"maxOccupancy":3,"lat":-35.2684440612793},{"locationScore":1,"price":325,"nights":9,"name":"Doug Graves Resort","qualityScore":9,"lon":149.0436553955078,"maxOccupancy":4,"lat":-35.229591369628906},{"locationScore":1,"price":295,"nights":20,"name":"Anna Graham Resort","qualityScore":9,"lon":149.05165100097656,"maxOccupancy":2,"lat":-35.19118118286133},{"locationScore":3,"price":390,"nights":22,"name":"Eaton Wright AirBnB","qualityScore":9,"lon":149.0714111328125,"maxOccupancy":3,"lat":-35.368492126464844},{"locationScore":4,"price":420,"nights":13,"name":"Moe Skeeto Apartments","qualityScore":8,"lon":149.01254272460938,"maxOccupancy":4,"lat":-35.24734115600586},{"locationScore":8,"price":575,"nights":29,"name":"Constance Noring Hotel","qualityScore":9,"lon":149.02418518066406,"maxOccupancy":2,"lat":-35.16938781738281},{"locationScore":10,"price":509,"nights":15,"name":"Woody U. No Hotel","qualityScore":2,"lon":149.0223388671875,"maxOccupancy":4,"lat":-35.1435546875},{"locationScore":3,"price":390,"nights":30,"name":"Terry Achey Apartments","qualityScore":9,"lon":149.0084686279297,"maxOccupancy":3,"lat":-35.19108581542969},{"locationScore":4,"price":200,"nights":22,"name":"Arch N. Emmy Resort","qualityScore":1,"lon":149.00961303710938,"maxOccupancy":1,"lat":-35.119659423828125},{"locationScore":7,"price":570,"nights":14,"name":"Marsha Dimes Apartments","qualityScore":8,"lon":149.08189392089844,"maxOccupancy":6,"lat":-35.30632019042969},{"locationScore":6,"price":295,"nights":30,"name":"I. D. Clair Apartments","qualityScore":1,"lon":149.07745361328125,"maxOccupancy":2,"lat":-35.30424118041992},{"locationScore":9,"price":490,"nights":5,"name":"Luke Adam Go AirBnB","qualityScore":4,"lon":149.01873779296875,"maxOccupancy":2,"lat":-35.15971755981445},{"locationScore":7,"price":535,"nights":13,"name":"Ilene Left AirBnB","qualityScore":9,"lon":149.0535888671875,"maxOccupancy":2,"lat":-35.10161590576172},{"locationScore":3,"price":370,"nights":9,"name":"Lou Pole Hotel","qualityScore":7,"lon":149.0860595703125,"maxOccupancy":5,"lat":-35.275718688964844},{"locationScore":10,"price":565,"nights":16,"name":"Anna Conda Resort","qualityScore":3,"lon":149.0598907470703,"maxOccupancy":6,"lat":-35.32663345336914},{"locationScore":6,"price":535,"nights":17,"name":"Rusty Nails Resort","qualityScore":10,"lon":149.04786682128906,"maxOccupancy":3,"lat":-35.238624572753906},{"locationScore":9,"price":540,"nights":13,"name":"Artie Choke AirBnB","qualityScore":6,"lon":149.0544891357422,"maxOccupancy":2,"lat":-35.147396087646484},{"locationScore":4,"price":395,"nights":21,"name":"Liz Onnia Resort","qualityScore":7,"lon":149.07676696777344,"maxOccupancy":4,"lat":-35.30439758300781},{"locationScore":9,"price":475,"nights":13,"name":"U. P. Freehly Resort","qualityScore":1,"lon":149.0596160888672,"maxOccupancy":6,"lat":-35.15493392944336},{"locationScore":10,"price":650,"nights":12,"name":"Hy Lowe Resort","qualityScore":7,"lon":149.0860137939453,"maxOccupancy":5,"lat":-35.27292251586914},{"locationScore":5,"price":490,"nights":28,"name":"Polly Ester AirBnB","qualityScore":8,"lon":149.0059814453125,"maxOccupancy":6,"lat":-35.1007194519043},{"locationScore":9,"price":425,"nights":1,"name":"Crystal Ball AirBnB","qualityScore":2,"lon":149.02944946289062,"maxOccupancy":1,"lat":-35.268272399902344},{"locationScore":4,"price":455,"nights":24,"name":"Darren Deeds Motel","qualityScore":10,"lon":149.02488708496094,"maxOccupancy":3,"lat":-35.24577713012695},{"locationScore":6,"price":440,"nights":20,"name":"Anne Ville Apartments","qualityScore":5,"lon":149.06602478027344,"maxOccupancy":5,"lat":-35.3935432434082},{"locationScore":9,"price":550,"nights":21,"name":"Cheri Pitts Resort","qualityScore":7,"lon":149.07351684570312,"maxOccupancy":1,"lat":-35.21831130981445},{"locationScore":3,"price":415,"nights":2,"name":"Jeff Healitt Apartments","qualityScore":10,"lon":149.0091552734375,"maxOccupancy":3,"lat":-35.34504318237305},{"locationScore":5,"price":430,"nights":27,"name":"Iona Frisbee Hotel","qualityScore":8,"lon":149.0009002685547,"maxOccupancy":2,"lat":-35.353729248046875},{"locationScore":3,"price":285,"nights":5,"name":"Annette Curtain AirBnB","qualityScore":6,"lon":149.09548950195312,"maxOccupancy":1,"lat":-35.261985778808594},{"locationScore":10,"price":520,"nights":28,"name":"U. O. Money Resort","qualityScore":3,"lon":149.0922088623047,"maxOccupancy":3,"lat":-35.31585693359375},{"locationScore":6,"price":395,"nights":12,"name":"Mel Function AirBnB","qualityScore":5,"lon":149.07046508789062,"maxOccupancy":2,"lat":-35.3270263671875},{"locationScore":5,"price":320,"nights":10,"name":"Sally Forth Resort","qualityScore":3,"lon":149.07797241210938,"maxOccupancy":3,"lat":-35.33155822753906},{"locationScore":8,"price":410,"nights":13,"name":"Brice Tagg Motel","qualityScore":3,"lon":149.04534912109375,"maxOccupancy":1,"lat":-35.25932312011719},{"locationScore":1,"price":275,"nights":9,"name":"Park A. Studebaker AirBnB","qualityScore":7,"lon":149.01568603515625,"maxOccupancy":4,"lat":-35.1099853515625},{"locationScore":2,"price":359,"nights":30,"name":"Wayne Deer Hotel","qualityScore":10,"lon":149.02996826171875,"maxOccupancy":2,"lat":-35.125770568847656},{"locationScore":8,"price":405,"nights":5,"name":"Sam Pull AirBnB","qualityScore":1,"lon":149.09751892089844,"maxOccupancy":4,"lat":-35.16085433959961},{"locationScore":2,"price":340,"nights":15,"name":"Drew Blood Motel","qualityScore":8,"lon":149.0738525390625,"maxOccupancy":4,"lat":-35.17916488647461},{"locationScore":10,"price":509,"nights":30,"name":"Ophelia Payne Motel","qualityScore":2,"lon":149.0634002685547,"maxOccupancy":4,"lat":-35.13974380493164},{"locationScore":6,"price":350,"nights":5,"name":"Chris Ko Apartments","qualityScore":2,"lon":149.07186889648438,"maxOccupancy":4,"lat":-35.292606353759766},{"locationScore":7,"price":620,"nights":20,"name":"U. O. Money Hotel","qualityScore":10,"lon":149.03013610839844,"maxOccupancy":6,"lat":-35.18336486816406},{"locationScore":3,"price":385,"nights":6,"name":"Mark A. Roni AirBnB","qualityScore":7,"lon":149.06051635742188,"maxOccupancy":6,"lat":-35.39421463012695},{"locationScore":4,"price":200,"nights":23,"name":"Dan Deline Resort","qualityScore":1,"lon":149.06639099121094,"maxOccupancy":1,"lat":-35.25751876831055},{"locationScore":5,"price":509,"nights":29,"name":"Ivan Oder Motel","qualityScore":10,"lon":149.05923461914062,"maxOccupancy":4,"lat":-35.27283477783203},{"locationScore":4,"price":400,"nights":11,"name":"Peg Legge Resort","qualityScore":9,"lon":149.00711059570312,"maxOccupancy":1,"lat":-35.34943771362305},{"locationScore":3,"price":325,"nights":20,"name":"Ken Oppenner AirBnB","qualityScore":7,"lon":149.06883239746094,"maxOccupancy":2,"lat":-35.16288375854492},{"locationScore":3,"price":200,"nights":18,"name":"Sue Permann Hotel","qualityScore":2,"lon":149.08157348632812,"maxOccupancy":2,"lat":-35.26942443847656},{"locationScore":9,"price":595,"nights":15,"name":"Doug Hole Motel","qualityScore":7,"lon":149.0845489501953,"maxOccupancy":4,"lat":-35.16416549682617},{"locationScore":4,"price":390,"nights":21,"name":"Taylor Maid Hotel","qualityScore":8,"lon":149.03631591796875,"maxOccupancy":2,"lat":-35.35319900512695},{"locationScore":5,"price":330,"nights":2,"name":"Rocky Mountain Motel","qualityScore":4,"lon":149.0038299560547,"maxOccupancy":2,"lat":-35.32898712158203},{"locationScore":5,"price":290,"nights":30,"name":"Adam Zapel Hotel","qualityScore":3,"lon":149.02618408203125,"maxOccupancy":1,"lat":-35.216712951660156},{"locationScore":2,"price":204,"nights":21,"name":"Al Nino Resort","qualityScore":2,"lon":149.0093994140625,"maxOccupancy":5,"lat":-35.37778854370117},{"locationScore":7,"price":445,"nights":4,"name":"Allen Rench Hotel","qualityScore":6,"lon":149.0193634033203,"maxOccupancy":1,"lat":-35.388832092285156},{"locationScore":4,"price":375,"nights":4,"name":"Claire DeAir AirBnB","qualityScore":5,"lon":149.0550537109375,"maxOccupancy":6,"lat":-35.19157028198242},{"locationScore":7,"price":470,"nights":3,"name":"Leo Tarred Resort","qualityScore":4,"lon":149.0764617919922,"maxOccupancy":6,"lat":-35.387725830078125},{"locationScore":4,"price":285,"nights":11,"name":"Count Orff Hotel","qualityScore":2,"lon":149.0267791748047,"maxOccupancy":5,"lat":-35.252342224121094},{"locationScore":1,"price":204,"nights":18,"name":"April Schauer Apartments","qualityScore":3,"lon":149.09490966796875,"maxOccupancy":6,"lat":-35.3071403503418},{"locationScore":3,"price":205,"nights":30,"name":"Jasmine Flowers Motel","qualityScore":1,"lon":149.08709716796875,"maxOccupancy":4,"lat":-35.15198516845703},{"locationScore":5,"price":320,"nights":28,"name":"Amanda B. Reckonwith Apartments","qualityScore":3,"lon":149.0504913330078,"maxOccupancy":3,"lat":-35.200382232666016},{"locationScore":7,"price":420,"nights":24,"name":"Ann Tartica Apartments","qualityScore":2,"lon":149.0258026123047,"maxOccupancy":6,"lat":-35.103240966796875},{"locationScore":1,"price":240,"nights":28,"name":"Theresa Green Hotel","qualityScore":5,"lon":149.0685577392578,"maxOccupancy":5,"lat":-35.28466033935547},{"locationScore":6,"price":335,"nights":28,"name":"X. Benedict Resort","qualityScore":2,"lon":149.0988311767578,"maxOccupancy":3,"lat":-35.14449691772461},{"locationScore":5,"price":310,"nights":20,"name":"Max Power Resort","qualityScore":2,"lon":149.08187866210938,"maxOccupancy":4,"lat":-35.1413688659668},{"locationScore":3,"price":330,"nights":6,"name":"I. D. Clair Resort","qualityScore":6,"lon":149.00244140625,"maxOccupancy":4,"lat":-35.24165344238281},{"locationScore":3,"price":345,"nights":4,"name":"Claire Voyance Hotel","qualityScore":6,"lon":149.04315185546875,"maxOccupancy":5,"lat":-35.36003112792969},{"locationScore":10,"price":480,"nights":23,"name":"Ginger Vitis AirBnB","qualityScore":2,"lon":149.00401306152344,"maxOccupancy":2,"lat":-35.25955581665039},{"locationScore":2,"price":250,"nights":19,"name":"Iona Ford Resort","qualityScore":5,"lon":149.0384521484375,"maxOccupancy":3,"lat":-35.38412857055664},{"locationScore":5,"price":475,"nights":16,"name":"Taylor Maid Resort","qualityScore":8,"lon":149.0253448486328,"maxOccupancy":5,"lat":-35.166439056396484},{"locationScore":2,"price":359,"nights":22,"name":"Al Nino AirBnB","qualityScore":10,"lon":149.09213256835938,"maxOccupancy":2,"lat":-35.35566711425781},{"locationScore":10,"price":675,"nights":9,"name":"Darryl Likt Hotel","qualityScore":8,"lon":149.09649658203125,"maxOccupancy":5,"lat":-35.15385437011719},{"locationScore":1,"price":235,"nights":8,"name":"Stan Still Hotel","qualityScore":6,"lon":149.005126953125,"maxOccupancy":3,"lat":-35.254783630371094},{"locationScore":2,"price":370,"nights":15,"name":"Marshall Law AirBnB","qualityScore":8,"lon":149.02899169921875,"maxOccupancy":6,"lat":-35.14802932739258},{"locationScore":7,"price":380,"nights":19,"name":"Jacques Strap AirBnB","qualityScore":1,"lon":149.0167236328125,"maxOccupancy":5,"lat":-35.36133575439453},{"locationScore":1,"price":195,"nights":8,"name":"Joy Rider Hotel","qualityScore":5,"lon":149.0521697998047,"maxOccupancy":2,"lat":-35.308589935302734},{"locationScore":5,"price":270,"nights":27,"name":"Liv Long Resort","qualityScore":1,"lon":149.05987548828125,"maxOccupancy":3,"lat":-35.19557189941406},{"locationScore":2,"price":145,"nights":25,"name":"Barb E. Cue AirBnB","qualityScore":2,"lon":149.04261779785156,"maxOccupancy":1,"lat":-35.32369613647461},{"locationScore":1,"price":125,"nights":26,"name":"Mary Ott AirBnB","qualityScore":1,"lon":149.00588989257812,"maxOccupancy":4,"lat":-35.32429122924805},{"locationScore":5,"price":475,"nights":4,"name":"Colette A. Day Apartments","qualityScore":8,"lon":149.06163024902344,"maxOccupancy":5,"lat":-35.24122619628906},{"locationScore":2,"price":204,"nights":21,"name":"Buddy Booth Resort","qualityScore":2,"lon":149.01083374023438,"maxOccupancy":5,"lat":-35.38835525512695},{"locationScore":10,"price":695,"nights":19,"name":"Allen Rench Apartments","qualityScore":10,"lon":149.00820922851562,"maxOccupancy":3,"lat":-35.12950134277344},{"locationScore":4,"price":500,"nights":6,"name":"Kurt Remarque Apartments","qualityScore":10,"lon":149.0727081298828,"maxOccupancy":6,"lat":-35.296295166015625},{"locationScore":7,"price":420,"nights":9,"name":"Morgan U. Canhandle Apartments","qualityScore":2,"lon":149.09471130371094,"maxOccupancy":6,"lat":-35.262176513671875},{"locationScore":4,"price":370,"nights":26,"name":"Rocky Beach Motel","qualityScore":6,"lon":149.0380401611328,"maxOccupancy":4,"lat":-35.2973747253418},{"locationScore":7,"price":385,"nights":23,"name":"Douglas Furr AirBnB","qualityScore":3,"lon":149.06187438964844,"maxOccupancy":2,"lat":-35.18369674682617},{"locationScore":5,"price":525,"nights":14,"name":"Dusty Carr Hotel","qualityScore":10,"lon":149.03692626953125,"maxOccupancy":5,"lat":-35.247772216796875},{"locationScore":3,"price":190,"nights":29,"name":"Dan Geruss Resort","qualityScore":1,"lon":149.0120391845703,"maxOccupancy":3,"lat":-35.30607986450195},{"locationScore":4,"price":360,"nights":27,"name":"Milly Meter Hotel","qualityScore":5,"lon":149.0051727294922,"maxOccupancy":5,"lat":-35.34719467163086},{"locationScore":7,"price":465,"nights":7,"name":"Gil T. Azell Resort","qualityScore":5,"lon":149.02362060546875,"maxOccupancy":4,"lat":-35.12070083618164},{"locationScore":2,"price":170,"nights":1,"name":"Bo D. Satva Hotel","qualityScore":3,"lon":149.0593719482422,"maxOccupancy":1,"lat":-35.3552131652832},{"locationScore":6,"price":330,"nights":2,"name":"Max Little Apartments","qualityScore":3,"lon":149.08799743652344,"maxOccupancy":1,"lat":-35.3890495300293},{"locationScore":7,"price":540,"nights":24,"name":"Al Dente Apartments","qualityScore":8,"lon":149.062744140625,"maxOccupancy":4,"lat":-35.14809799194336},{"locationScore":7,"price":380,"nights":5,"name":"Art Sellers Apartments","qualityScore":1,"lon":149.0228729248047,"maxOccupancy":5,"lat":-35.27335739135742},{"locationScore":4,"price":350,"nights":17,"name":"Jane Linkfence Resort","qualityScore":7,"lon":149.0284881591797,"maxOccupancy":1,"lat":-35.31966018676758},{"locationScore":9,"price":545,"nights":27,"name":"Annie Howe AirBnB","qualityScore":5,"lon":149.09970092773438,"maxOccupancy":4,"lat":-35.37405014038086},{"locationScore":7,"price":500,"nights":7,"name":"Ken Oppenner Apartments","qualityScore":7,"lon":149.0908203125,"maxOccupancy":3,"lat":-35.27239990234375},{"locationScore":8,"price":434,"nights":27,"name":"Moe DeLawn Apartments","qualityScore":4,"lon":149.0917205810547,"maxOccupancy":1,"lat":-35.215423583984375},{"locationScore":1,"price":340,"nights":9,"name":"Barry Cade Resort","qualityScore":9,"lon":149.05389404296875,"maxOccupancy":5,"lat":-35.11591720581055},{"locationScore":10,"price":675,"nights":28,"name":"Bruce Easley Resort","qualityScore":8,"lon":149.0135040283203,"maxOccupancy":5,"lat":-35.263065338134766},{"locationScore":7,"price":400,"nights":13,"name":"Neve Adda Motel","qualityScore":3,"lon":149.09359741210938,"maxOccupancy":3,"lat":-35.17758560180664},{"locationScore":7,"price":475,"nights":15,"name":"Crystal Ball Resort","qualityScore":6,"lon":149.03884887695312,"maxOccupancy":3,"lat":-35.16598129272461},{"locationScore":8,"price":459,"nights":24,"name":"Darren Deeds Resort","qualityScore":2,"lon":149.00790405273438,"maxOccupancy":6,"lat":-35.327640533447266},{"locationScore":8,"price":585,"nights":21,"name":"Roman Holiday Apartments","qualityScore":7,"lon":149.03359985351562,"maxOccupancy":6,"lat":-35.21857452392578},{"locationScore":6,"price":425,"nights":7,"name":"Park A. Studebaker Apartments","qualityScore":5,"lon":149.0237579345703,"maxOccupancy":4,"lat":-35.100372314453125},{"locationScore":2,"price":185,"nights":2,"name":"Sue Yu Hotel","qualityScore":3,"lon":149.02688598632812,"maxOccupancy":2,"lat":-35.11540603637695},{"locationScore":10,"price":550,"nights":30,"name":"Minny van Gogh Apartments","qualityScore":3,"lon":149.07943725585938,"maxOccupancy":5,"lat":-35.179683685302734},{"locationScore":2,"price":405,"nights":26,"name":"Stan Still Motel","qualityScore":10,"lon":149.030029296875,"maxOccupancy":5,"lat":-35.210018157958984},{"locationScore":5,"price":360,"nights":14,"name":"Doris Schutt AirBnB","qualityScore":4,"lon":149.02627563476562,"maxOccupancy":4,"lat":-35.34358596801758},{"locationScore":5,"price":425,"nights":1,"name":"Bill Overdew Resort","qualityScore":6,"lon":149.05596923828125,"maxOccupancy":5,"lat":-35.35853958129883},{"locationScore":9,"price":620,"nights":19,"name":"Wilma Leggrowbach Apartments","qualityScore":8,"lon":149.08763122558594,"maxOccupancy":4,"lat":-35.263038635253906},{"locationScore":9,"price":670,"nights":7,"name":"Rhoda Booke Apartments","qualityScore":10,"lon":149.06881713867188,"maxOccupancy":4,"lat":-35.34081268310547},{"locationScore":1,"price":154,"nights":13,"name":"P. Brain AirBnB","qualityScore":4,"lon":149.04360961914062,"maxOccupancy":1,"lat":-35.25785827636719},{"locationScore":9,"price":630,"nights":29,"name":"Lina Ginster AirBnB","qualityScore":9,"lon":149.003662109375,"maxOccupancy":3,"lat":-35.39820861816406},{"locationScore":1,"price":250,"nights":7,"name":"Nick Ovtime Hotel","qualityScore":6,"lon":149.0567169189453,"maxOccupancy":4,"lat":-35.19911193847656},{"locationScore":9,"price":630,"nights":24,"name":"Mary Thonn Hotel","qualityScore":9,"lon":149.0054931640625,"maxOccupancy":3,"lat":-35.265716552734375},{"locationScore":1,"price":215,"nights":12,"name":"Seymour Legg AirBnB","qualityScore":4,"lon":149.03585815429688,"maxOccupancy":5,"lat":-35.34511184692383},{"locationScore":3,"price":315,"nights":22,"name":"Otto B. Kilt AirBnB","qualityScore":6,"lon":149.01490783691406,"maxOccupancy":3,"lat":-35.152183532714844},{"locationScore":8,"price":635,"nights":30,"name":"Rhoda Booke AirBnB","qualityScore":9,"lon":149.0528106689453,"maxOccupancy":6,"lat":-35.33957290649414},{"locationScore":6,"price":495,"nights":18,"name":"Ben O'Drill Hotel","qualityScore":9,"lon":149.0735626220703,"maxOccupancy":2,"lat":-35.22972106933594},{"locationScore":10,"price":575,"nights":14,"name":"Lina Ginster Apartments","qualityScore":4,"lon":149.0662841796875,"maxOccupancy":5,"lat":-35.370361328125},{"locationScore":3,"price":300,"nights":13,"name":"Misty Shore Resort","qualityScore":6,"lon":149.01438903808594,"maxOccupancy":2,"lat":-35.33232879638672},{"locationScore":7,"price":484,"nights":7,"name":"May O'Nays Motel","qualityScore":7,"lon":149.04183959960938,"maxOccupancy":2,"lat":-35.13806915283203},{"locationScore":3,"price":255,"nights":26,"name":"Gus Tofwin AirBnB","qualityScore":3,"lon":149.0963134765625,"maxOccupancy":4,"lat":-35.3416862487793},{"locationScore":8,"price":580,"nights":20,"name":"Lois Price Resort","qualityScore":8,"lon":149.08108520507812,"maxOccupancy":4,"lat":-35.35445022583008},{"locationScore":6,"price":480,"nights":18,"name":"Lina Ginster Apartments","qualityScore":9,"lon":149.04769897460938,"maxOccupancy":1,"lat":-35.24833297729492},{"locationScore":2,"price":265,"nights":16,"name":"Art Sellers Resort","qualityScore":5,"lon":149.07420349121094,"maxOccupancy":4,"lat":-35.194644927978516},{"locationScore":2,"price":215,"nights":17,"name":"Tish Hughes AirBnB","qualityScore":3,"lon":149.0399627685547,"maxOccupancy":4,"lat":-35.32699966430664},{"locationScore":5,"price":425,"nights":8,"name":"Jasmine Rice Motel","qualityScore":6,"lon":149.02418518066406,"maxOccupancy":5,"lat":-35.19978713989258},{"locationScore":3,"price":320,"nights":3,"name":"June Bugg AirBnB","qualityScore":5,"lon":149.02523803710938,"maxOccupancy":5,"lat":-35.38371276855469},{"locationScore":9,"price":600,"nights":12,"name":"Tamara Knight AirBnB","qualityScore":9,"lon":149.05245971679688,"maxOccupancy":1,"lat":-35.308326721191406},{"locationScore":9,"price":550,"nights":12,"name":"Rufus Leaking AirBnB","qualityScore":4,"lon":149.01708984375,"maxOccupancy":6,"lat":-35.34269714355469},{"locationScore":8,"price":585,"nights":25,"name":"Mary Thonn AirBnB","qualityScore":10,"lon":149.05052185058594,"maxOccupancy":1,"lat":-35.294593811035156},{"locationScore":2,"price":250,"nights":26,"name":"Bill Loney Resort","qualityScore":5,"lon":149.05528259277344,"maxOccupancy":3,"lat":-35.121315002441406},{"locationScore":5,"price":355,"nights":21,"name":"Candy Kane AirBnB","qualityScore":5,"lon":149.0744171142578,"maxOccupancy":2,"lat":-35.31496810913086},{"locationScore":9,"price":525,"nights":6,"name":"Candy Barr Apartments","qualityScore":6,"lon":149.0745391845703,"maxOccupancy":1,"lat":-35.38956832885742},{"locationScore":3,"price":305,"nights":9,"name":"Ford Parker AirBnB","qualityScore":5,"lon":149.01336669921875,"maxOccupancy":4,"lat":-35.39345932006836},{"locationScore":5,"price":350,"nights":17,"name":"Nick O'Teen Hotel","qualityScore":3,"lon":149.02935791015625,"maxOccupancy":5,"lat":-35.21417999267578},{"locationScore":9,"price":465,"nights":29,"name":"Frank Enstein Resort","qualityScore":3,"lon":149.08692932128906,"maxOccupancy":2,"lat":-35.135154724121094},{"locationScore":5,"price":434,"nights":13,"name":"Al Kaseltzer Hotel","qualityScore":7,"lon":149.08348083496094,"maxOccupancy":4,"lat":-35.243980407714844},{"locationScore":2,"price":405,"nights":1,"name":"Roger Overandout AirBnB","qualityScore":10,"lon":149.0575408935547,"maxOccupancy":5,"lat":-35.131656646728516},{"locationScore":2,"price":320,"nights":26,"name":"Dan Deline Motel","qualityScore":9,"lon":149.06536865234375,"maxOccupancy":1,"lat":-35.26801681518555},{"locationScore":1,"price":300,"nights":25,"name":"Barb E. Cue AirBnB","qualityScore":8,"lon":149.06747436523438,"maxOccupancy":4,"lat":-35.2501106262207},{"locationScore":6,"price":325,"nights":25,"name":"Danielle Soloud AirBnB","qualityScore":1,"lon":149.08944702148438,"maxOccupancy":4,"lat":-35.27644729614258},{"locationScore":10,"price":635,"nights":8,"name":"Eileen Dover Apartments","qualityScore":7,"lon":149.05902099609375,"maxOccupancy":4,"lat":-35.32107925415039},{"locationScore":1,"price":270,"nights":12,"name":"Rick O'Shea AirBnB","qualityScore":8,"lon":149.08192443847656,"maxOccupancy":2,"lat":-35.269676208496094},{"locationScore":8,"price":484,"nights":16,"name":"Sid Down Apartments","qualityScore":6,"lon":149.09739685058594,"maxOccupancy":1,"lat":-35.115203857421875},{"locationScore":3,"price":285,"nights":3,"name":"Barb Dwyer Hotel","qualityScore":6,"lon":149.0165252685547,"maxOccupancy":1,"lat":-35.11517333984375},{"locationScore":1,"price":305,"nights":21,"name":"Duane DeVane Hotel","qualityScore":10,"lon":149.04489135742188,"maxOccupancy":1,"lat":-35.17295837402344},{"locationScore":10,"price":540,"nights":6,"name":"Dusty Rhodes AirBnB","qualityScore":2,"lon":149.0633087158203,"maxOccupancy":6,"lat":-35.16480255126953},{"locationScore":4,"price":250,"nights":2,"name":"Brook Lynn Bridge Hotel","qualityScore":3,"lon":149.08697509765625,"maxOccupancy":1,"lat":-35.35264205932617},{"locationScore":7,"price":410,"nights":11,"name":"Sue Flay Resort","qualityScore":4,"lon":149.01683044433594,"maxOccupancy":2,"lat":-35.38621520996094},{"locationScore":5,"price":265,"nights":10,"name":"Dee Liver Apartments","qualityScore":2,"lon":149.0410919189453,"maxOccupancy":1,"lat":-35.198856353759766},{"locationScore":6,"price":430,"nights":11,"name":"Eileen Dover AirBnB","qualityScore":7,"lon":149.07861328125,"maxOccupancy":1,"lat":-35.39381790161133},{"locationScore":5,"price":430,"nights":30,"name":"Howe D. Pardner Resort","qualityScore":8,"lon":149.0873565673828,"maxOccupancy":2,"lat":-35.14368438720703},{"locationScore":3,"price":275,"nights":17,"name":"Lisa Honda AirBnB","qualityScore":5,"lon":149.0687255859375,"maxOccupancy":2,"lat":-35.272762298583984},{"locationScore":10,"price":655,"nights":19,"name":"Howe D. Pardner Apartments","qualityScore":9,"lon":149.04129028320312,"maxOccupancy":2,"lat":-35.36041259765625},{"locationScore":5,"price":340,"nights":12,"name":"Faye Slift AirBnB","qualityScore":2,"lon":149.0242462158203,"maxOccupancy":6,"lat":-35.38279724121094},{"locationScore":10,"price":505,"nights":7,"name":"C. Worthy Motel","qualityScore":3,"lon":149.01644897460938,"maxOccupancy":2,"lat":-35.11121368408203},{"locationScore":8,"price":560,"nights":7,"name":"Alf Abet Apartments","qualityScore":9,"lon":149.08529663085938,"maxOccupancy":1,"lat":-35.13640213012695},{"locationScore":1,"price":280,"nights":16,"name":"Brice Tagg Motel","qualityScore":6,"lon":149.0305633544922,"maxOccupancy":6,"lat":-35.35053634643555},{"locationScore":7,"price":450,"nights":23,"name":"Pete Zaria Resort","qualityScore":5,"lon":149.0071258544922,"maxOccupancy":3,"lat":-35.18082046508789},{"locationScore":3,"price":360,"nights":12,"name":"Brooke Waters Resort","qualityScore":9,"lon":149.06591796875,"maxOccupancy":1,"lat":-35.205169677734375},{"locationScore":2,"price":220,"nights":14,"name":"Eve O'Lution Hotel","qualityScore":5,"lon":149.0684356689453,"maxOccupancy":1,"lat":-35.35344696044922},{"locationScore":3,"price":434,"nights":10,"name":"Pete Zaria AirBnB","qualityScore":9,"lon":149.02291870117188,"maxOccupancy":6,"lat":-35.12624740600586},{"locationScore":10,"price":565,"nights":8,"name":"Misty Waters Apartments","qualityScore":3,"lon":149.04953002929688,"maxOccupancy":6,"lat":-35.123573303222656},{"locationScore":4,"price":200,"nights":3,"name":"Alec Tricity Resort","qualityScore":1,"lon":149.03684997558594,"maxOccupancy":1,"lat":-35.32451248168945},{"locationScore":7,"price":530,"nights":23,"name":"Kerry Oki Motel","qualityScore":7,"lon":149.02964782714844,"maxOccupancy":5,"lat":-35.10697555541992},{"locationScore":6,"price":535,"nights":2,"name":"Terry Achey Resort","qualityScore":10,"lon":149.07334899902344,"maxOccupancy":3,"lat":-35.13402557373047},{"locationScore":3,"price":320,"nights":29,"name":"Winsom Cash Motel","qualityScore":5,"lon":149.05857849121094,"maxOccupancy":5,"lat":-35.10084533691406},{"locationScore":8,"price":585,"nights":11,"name":"Misty Shore Apartments","qualityScore":7,"lon":149.00746154785156,"maxOccupancy":6,"lat":-35.14244842529297},{"locationScore":9,"price":600,"nights":13,"name":"Ty Malone Apartments","qualityScore":6,"lon":149.08238220214844,"maxOccupancy":6,"lat":-35.326690673828125},{"locationScore":6,"price":355,"nights":19,"name":"Holly Wood AirBnB","qualityScore":4,"lon":149.07034301757812,"maxOccupancy":1,"lat":-35.13340377807617},{"locationScore":8,"price":515,"nights":2,"name":"Rosa Shore Hotel","qualityScore":6,"lon":149.02642822265625,"maxOccupancy":3,"lat":-35.2394905090332},{"locationScore":8,"price":565,"nights":19,"name":"Pete Moss Hotel","qualityScore":8,"lon":149.01083374023438,"maxOccupancy":3,"lat":-35.19786834716797},{"locationScore":9,"price":459,"nights":6,"name":"Brock Lee Hotel","qualityScore":1,"lon":149.0533447265625,"maxOccupancy":5,"lat":-35.36647033691406},{"locationScore":9,"price":615,"nights":19,"name":"Iona Frisbee Apartments","qualityScore":9,"lon":149.0233612060547,"maxOccupancy":2,"lat":-35.36921691894531},{"locationScore":6,"price":470,"nights":12,"name":"Andy Friese Resort","qualityScore":8,"lon":149.03517150878906,"maxOccupancy":2,"lat":-35.19042205810547},{"locationScore":2,"price":180,"nights":9,"name":"Cole Kutz Resort","qualityScore":1,"lon":149.03314208984375,"maxOccupancy":5,"lat":-35.141258239746094},{"locationScore":2,"price":350,"nights":23,"name":"Lou Stooth Hotel","qualityScore":9,"lon":149.0641632080078,"maxOccupancy":3,"lat":-35.106597900390625},{"locationScore":1,"price":260,"nights":4,"name":"Penny Lane Hotel","qualityScore":7,"lon":149.07846069335938,"maxOccupancy":3,"lat":-35.256385803222656},{"locationScore":1,"price":235,"nights":2,"name":"E. Ville Motel","qualityScore":6,"lon":149.0870361328125,"maxOccupancy":3,"lat":-35.39499282836914},{"locationScore":4,"price":245,"nights":1,"name":"Rip Tile Hotel","qualityScore":1,"lon":149.03138732910156,"maxOccupancy":4,"lat":-35.23206329345703},{"locationScore":1,"price":190,"nights":1,"name":"Pat Pending Apartments","qualityScore":3,"lon":149.0264434814453,"maxOccupancy":5,"lat":-35.26118469238281},{"locationScore":6,"price":320,"nights":23,"name":"Minnie Skurt AirBnB","qualityScore":2,"lon":149.06968688964844,"maxOccupancy":2,"lat":-35.337562561035156},{"locationScore":4,"price":245,"nights":23,"name":"Jim Shorts Apartments","qualityScore":1,"lon":149.0292205810547,"maxOccupancy":4,"lat":-35.301048278808594},{"locationScore":2,"price":295,"nights":9,"name":"Bart Ender AirBnB","qualityScore":5,"lon":149.0530548095703,"maxOccupancy":6,"lat":-35.195068359375},{"locationScore":4,"price":445,"nights":21,"name":"Oscar Ruitt Hotel","qualityScore":9,"lon":149.09024047851562,"maxOccupancy":4,"lat":-35.28050231933594},{"locationScore":9,"price":425,"nights":17,"name":"Luke Adam Go Motel","qualityScore":2,"lon":149.07064819335938,"maxOccupancy":1,"lat":-35.270103454589844},{"locationScore":9,"price":415,"nights":1,"name":"Homan Provement AirBnB","qualityScore":1,"lon":149.0386962890625,"maxOccupancy":2,"lat":-35.20872116088867},{"locationScore":6,"price":350,"nights":30,"name":"Lon Moore Hotel","qualityScore":2,"lon":149.07264709472656,"maxOccupancy":4,"lat":-35.11416244506836},{"locationScore":4,"price":270,"nights":1,"name":"Winnie Dipoo Hotel","qualityScore":2,"lon":149.08090209960938,"maxOccupancy":4,"lat":-35.37580108642578},{"locationScore":7,"price":395,"nights":27,"name":"Frank N. Beans Resort","qualityScore":1,"lon":149.02310180664062,"maxOccupancy":6,"lat":-35.38728713989258},{"locationScore":9,"price":670,"nights":23,"name":"Melanie Letters Hotel","qualityScore":10,"lon":149.07916259765625,"maxOccupancy":4,"lat":-35.33979797363281},{"locationScore":7,"price":460,"nights":8,"name":"Rowan Boatman Hotel","qualityScore":6,"lon":149.08258056640625,"maxOccupancy":2,"lat":-35.14390182495117},{"locationScore":6,"price":430,"nights":25,"name":"Elmer Sklue Resort","qualityScore":7,"lon":149.0849151611328,"maxOccupancy":1,"lat":-35.24456787109375},{"locationScore":3,"price":260,"nights":2,"name":"Ella Vader Resort","qualityScore":2,"lon":149.09149169921875,"maxOccupancy":6,"lat":-35.10386276245117},{"locationScore":8,"price":434,"nights":29,"name":"Sam Dayoulpay Hotel","qualityScore":1,"lon":149.0770721435547,"maxOccupancy":6,"lat":-35.289676666259766},{"locationScore":8,"price":440,"nights":16,"name":"Kareem O'Weet Hotel","qualityScore":3,"lon":149.0952911376953,"maxOccupancy":3,"lat":-35.21397018432617},{"locationScore":5,"price":345,"nights":1,"name":"Pat Downe Resort","qualityScore":4,"lon":149.0603790283203,"maxOccupancy":3,"lat":-35.16664505004883},{"locationScore":6,"price":470,"nights":10,"name":"Heather N. Yonn Motel","qualityScore":8,"lon":149.02703857421875,"maxOccupancy":2,"lat":-35.36934280395508},{"locationScore":6,"price":395,"nights":12,"name":"Sue Jeu Resort","qualityScore":5,"lon":149.0282440185547,"maxOccupancy":2,"lat":-35.11748123168945},{"locationScore":9,"price":625,"nights":5,"name":"I. D. Clair Motel","qualityScore":7,"lon":149.074462890625,"maxOccupancy":6,"lat":-35.213626861572266},{"locationScore":7,"price":605,"nights":26,"name":"Sue Flay Motel","qualityScore":10,"lon":149.0004119873047,"maxOccupancy":5,"lat":-35.22540283203125},{"locationScore":7,"price":415,"nights":13,"name":"Charity Case Apartments","qualityScore":3,"lon":149.0028839111328,"maxOccupancy":4,"lat":-35.28559494018555},{"locationScore":2,"price":245,"nights":24,"name":"Seymour Legg AirBnB","qualityScore":3,"lon":149.0704803466797,"maxOccupancy":6,"lat":-35.14517593383789},{"locationScore":1,"price":350,"nights":9,"name":"Anne Teak Motel","qualityScore":10,"lon":149.0757598876953,"maxOccupancy":4,"lat":-35.13643264770508},{"locationScore":4,"price":400,"nights":1,"name":"Doris Schutt AirBnB","qualityScore":9,"lon":149.09152221679688,"maxOccupancy":1,"lat":-35.12806701660156},{"locationScore":1,"price":310,"nights":20,"name":"Doris Schutt Motel","qualityScore":9,"lon":149.03457641601562,"maxOccupancy":3,"lat":-35.24863815307617},{"locationScore":2,"price":284,"nights":9,"name":"Bill Loney Resort","qualityScore":7,"lon":149.02345275878906,"maxOccupancy":2,"lat":-35.34196853637695},{"locationScore":2,"price":195,"nights":10,"name":"Ryan Carnation Resort","qualityScore":1,"lon":149.0891876220703,"maxOccupancy":6,"lat":-35.118221282958984},{"locationScore":8,"price":530,"nights":22,"name":"Carlotta Tendant Hotel","qualityScore":6,"lon":149.04953002929688,"maxOccupancy":4,"lat":-35.370750427246094},{"locationScore":8,"price":605,"nights":18,"name":"Lisa Neucar Apartments","qualityScore":9,"lon":149.0870819091797,"maxOccupancy":4,"lat":-35.24736404418945},{"locationScore":7,"price":490,"nights":5,"name":"Joy Rider Resort","qualityScore":6,"lon":149.02362060546875,"maxOccupancy":4,"lat":-35.29336929321289},{"locationScore":6,"price":440,"nights":2,"name":"Nida Lyte Apartments","qualityScore":5,"lon":149.0485382080078,"maxOccupancy":5,"lat":-35.1802864074707},{"locationScore":2,"price":390,"nights":6,"name":"Carlotta Tendant Apartments","qualityScore":10,"lon":149.07040405273438,"maxOccupancy":4,"lat":-35.376708984375},{"locationScore":1,"price":145,"nights":17,"name":"Harry Pitts Hotel","qualityScore":3,"lon":149.04916381835938,"maxOccupancy":2,"lat":-35.182701110839844},{"locationScore":10,"price":685,"nights":12,"name":"P. Brain Resort","qualityScore":9,"lon":149.09324645996094,"maxOccupancy":4,"lat":-35.25706100463867},{"locationScore":8,"price":420,"nights":17,"name":"Haywood Jashootmee Motel","qualityScore":1,"lon":149.0609130859375,"maxOccupancy":5,"lat":-35.22632598876953},{"locationScore":9,"price":655,"nights":4,"name":"Al K. Seltzer Hotel","qualityScore":10,"lon":149.08395385742188,"maxOccupancy":3,"lat":-35.112213134765625},{"locationScore":3,"price":315,"nights":19,"name":"R. M. Pitt Motel","qualityScore":6,"lon":149.0673370361328,"maxOccupancy":3,"lat":-35.18745803833008},{"locationScore":2,"price":240,"nights":2,"name":"Chanda Lear Hotel","qualityScore":4,"lon":149.0885467529297,"maxOccupancy":4,"lat":-35.158538818359375},{"locationScore":6,"price":580,"nights":3,"name":"Penny Bunn Apartments","qualityScore":10,"lon":149.0745849609375,"maxOccupancy":6,"lat":-35.206153869628906},{"locationScore":10,"price":640,"nights":10,"name":"Bob Ng AirBnB","qualityScore":6,"lon":149.09890747070312,"maxOccupancy":6,"lat":-35.32859802246094},{"locationScore":6,"price":335,"nights":26,"name":"Bea Minor Resort","qualityScore":2,"lon":149.0595703125,"maxOccupancy":3,"lat":-35.3355598449707},{"locationScore":7,"price":380,"nights":25,"name":"Heather N. Yonn Hotel","qualityScore":1,"lon":149.0361328125,"maxOccupancy":5,"lat":-35.130863189697266},{"locationScore":7,"price":450,"nights":21,"name":"Ben Dover Hotel","qualityScore":5,"lon":149.0030975341797,"maxOccupancy":3,"lat":-35.33555603027344},{"locationScore":6,"price":375,"nights":29,"name":"Milly Meter Resort","qualityScore":3,"lon":149.0741424560547,"maxOccupancy":4,"lat":-35.13842010498047},{"locationScore":6,"price":425,"nights":11,"name":"Melba Crisp Apartments","qualityScore":5,"lon":149.09181213378906,"maxOccupancy":4,"lat":-35.286319732666016},{"locationScore":9,"price":605,"nights":26,"name":"Andy Structible AirBnB","qualityScore":8,"lon":149.0907440185547,"maxOccupancy":3,"lat":-35.26382827758789},{"locationScore":8,"price":575,"nights":8,"name":"Telly Vision Motel","qualityScore":9,"lon":149.074951171875,"maxOccupancy":2,"lat":-35.32358169555664},{"locationScore":9,"price":505,"nights":18,"name":"Pete Zaria Resort","qualityScore":4,"lon":149.06373596191406,"maxOccupancy":3,"lat":-35.199867248535156},{"locationScore":9,"price":500,"nights":13,"name":"Carson O. Gin Hotel","qualityScore":5,"lon":149.01190185546875,"maxOccupancy":1,"lat":-35.398414611816406},{"locationScore":1,"price":130,"nights":10,"name":"Count Orff Hotel","qualityScore":3,"lon":149.03433227539062,"maxOccupancy":1,"lat":-35.2414436340332},{"locationScore":10,"price":530,"nights":19,"name":"Will Wynn Resort","qualityScore":4,"lon":149.03890991210938,"maxOccupancy":2,"lat":-35.24327087402344},{"locationScore":2,"price":204,"nights":26,"name":"Jasmine Rice Apartments","qualityScore":2,"lon":149.0737762451172,"maxOccupancy":5,"lat":-35.2680778503418},{"locationScore":2,"price":200,"nights":2,"name":"Katy Litter Motel","qualityScore":3,"lon":149.08937072753906,"maxOccupancy":3,"lat":-35.354305267333984},{"locationScore":6,"price":555,"nights":23,"name":"Mel Practiss Apartments","qualityScore":9,"lon":149.07931518554688,"maxOccupancy":6,"lat":-35.262672424316406},{"locationScore":6,"price":485,"nights":27,"name":"Herb E. Side AirBnB","qualityScore":8,"lon":149.09860229492188,"maxOccupancy":3,"lat":-35.265663146972656},{"locationScore":4,"price":280,"nights":19,"name":"Frank N. Stein Hotel","qualityScore":3,"lon":149.02313232421875,"maxOccupancy":3,"lat":-35.28316879272461},{"locationScore":6,"price":540,"nights":16,"name":"Bjorn Free Hotel","qualityScore":9,"lon":149.05055236816406,"maxOccupancy":5,"lat":-35.32072067260742},{"locationScore":3,"price":330,"nights":7,"name":"Al Nino Hotel","qualityScore":6,"lon":149.08123779296875,"maxOccupancy":4,"lat":-35.39237976074219},{"locationScore":6,"price":505,"nights":13,"name":"Jan U. Wharry AirBnB","qualityScore":10,"lon":149.03472900390625,"maxOccupancy":1,"lat":-35.35078811645508},{"locationScore":10,"price":625,"nights":12,"name":"Lake Speed AirBnB","qualityScore":6,"lon":149.0452423095703,"maxOccupancy":5,"lat":-35.179107666015625},{"locationScore":6,"price":365,"nights":2,"name":"Mabel Syrup Hotel","qualityScore":2,"lon":149.0976104736328,"maxOccupancy":5,"lat":-35.1474609375},{"locationScore":10,"price":725,"nights":21,"name":"Jo King Resort","qualityScore":10,"lon":149.09169006347656,"maxOccupancy":5,"lat":-35.3679313659668},{"locationScore":9,"price":620,"nights":11,"name":"Rowan Boatman Motel","qualityScore":8,"lon":149.02578735351562,"maxOccupancy":4,"lat":-35.2324104309082},{"locationScore":7,"price":385,"nights":24,"name":"Jacklyn Hyde Apartments","qualityScore":3,"lon":149.0554656982422,"maxOccupancy":2,"lat":-35.33887481689453},{"locationScore":2,"price":330,"nights":11,"name":"Max E. Mumm Motel","qualityScore":7,"lon":149.0282440185547,"maxOccupancy":5,"lat":-35.215213775634766},{"locationScore":10,"price":505,"nights":10,"name":"Harrison Fire Resort","qualityScore":3,"lon":149.07493591308594,"maxOccupancy":2,"lat":-35.31608200073242},{"locationScore":4,"price":310,"nights":10,"name":"Harry Legg AirBnB","qualityScore":3,"lon":149.06260681152344,"maxOccupancy":5,"lat":-35.3895263671875},{"locationScore":6,"price":510,"nights":22,"name":"Sue Flay Apartments","qualityScore":9,"lon":149.0813751220703,"maxOccupancy":3,"lat":-35.13233184814453},{"locationScore":8,"price":615,"nights":1,"name":"Thor Luther Hotel","qualityScore":10,"lon":149.0825958251953,"maxOccupancy":3,"lat":-35.3243293762207},{"locationScore":4,"price":390,"nights":14,"name":"I. Pullem Resort","qualityScore":8,"lon":149.0455780029297,"maxOccupancy":2,"lat":-35.345611572265625},{"locationScore":4,"price":275,"nights":15,"name":"Sandy Spring Apartments","qualityScore":1,"lon":149.04464721679688,"maxOccupancy":6,"lat":-35.14947509765625},{"locationScore":1,"price":365,"nights":24,"name":"Hugh Mungous Motel","qualityScore":10,"lon":149.02757263183594,"maxOccupancy":5,"lat":-35.39292907714844},{"locationScore":4,"price":500,"nights":15,"name":"Chris Coe Resort","qualityScore":10,"lon":149.03147888183594,"maxOccupancy":6,"lat":-35.18870544433594},{"locationScore":9,"price":585,"nights":29,"name":"Penny Bunn Resort","qualityScore":6,"lon":149.0861358642578,"maxOccupancy":5,"lat":-35.18859100341797},{"locationScore":8,"price":445,"nights":22,"name":"Bill Foldes Resort","qualityScore":2,"lon":149.01617431640625,"maxOccupancy":5,"lat":-35.312164306640625},{"locationScore":5,"price":375,"nights":15,"name":"X. Benedict Apartments","qualityScore":4,"lon":149.08352661132812,"maxOccupancy":5,"lat":-35.3261604309082},{"locationScore":6,"price":455,"nights":20,"name":"Bill Ding Resort","qualityScore":8,"lon":149.01739501953125,"maxOccupancy":1,"lat":-35.33135223388672},{"locationScore":3,"price":190,"nights":4,"name":"Darryl Likt Apartments","qualityScore":1,"lon":149.03347778320312,"maxOccupancy":3,"lat":-35.23895263671875},{"locationScore":6,"price":485,"nights":19,"name":"Gus Tofwin Apartments","qualityScore":8,"lon":149.0771484375,"maxOccupancy":3,"lat":-35.10750198364258},{"locationScore":9,"price":509,"nights":23,"name":"Phil DeGrave Motel","qualityScore":3,"lon":149.0609893798828,"maxOccupancy":5,"lat":-35.251277923583984},{"locationScore":5,"price":500,"nights":5,"name":"Sam Urai Hotel","qualityScore":9,"lon":149.09120178222656,"maxOccupancy":5,"lat":-35.36670684814453},{"locationScore":9,"price":610,"nights":3,"name":"Tim Burr Hotel","qualityScore":7,"lon":149.05311584472656,"maxOccupancy":5,"lat":-35.386226654052734},{"locationScore":9,"price":540,"nights":9,"name":"Jacklyn Hyde AirBnB","qualityScore":6,"lon":149.05908203125,"maxOccupancy":2,"lat":-35.24958801269531},{"locationScore":9,"price":700,"nights":7,"name":"Maurice Minor Motel","qualityScore":10,"lon":149.04562377929688,"maxOccupancy":6,"lat":-35.13230514526367},{"locationScore":8,"price":390,"nights":27,"name":"Faye Kinnitt Apartments","qualityScore":1,"lon":149.0622100830078,"maxOccupancy":3,"lat":-35.397544860839844},{"locationScore":3,"price":245,"nights":13,"name":"Max E. Mumm Apartments","qualityScore":2,"lon":149.0986785888672,"maxOccupancy":5,"lat":-35.17793655395508},{"locationScore":8,"price":560,"nights":6,"name":"Jerry Atrics AirBnB","qualityScore":6,"lon":149.07310485839844,"maxOccupancy":6,"lat":-35.319210052490234},{"locationScore":4,"price":459,"nights":12,"name":"Dusty Storm Hotel","qualityScore":9,"lon":149.00941467285156,"maxOccupancy":5,"lat":-35.12483596801758},{"locationScore":10,"price":615,"nights":27,"name":"Ann Chovie Apartments","qualityScore":5,"lon":149.05142211914062,"maxOccupancy":6,"lat":-35.324432373046875},{"locationScore":3,"price":430,"nights":20,"name":"Harry Legg Motel","qualityScore":10,"lon":149.0938720703125,"maxOccupancy":4,"lat":-35.26151657104492},{"locationScore":5,"price":450,"nights":11,"name":"Taylor Maid Hotel","qualityScore":7,"lon":149.08975219726562,"maxOccupancy":5,"lat":-35.19523239135742},{"locationScore":6,"price":340,"nights":25,"name":"Walter Melon Apartments","qualityScore":1,"lon":149.05018615722656,"maxOccupancy":5,"lat":-35.39170455932617},{"locationScore":4,"price":415,"nights":9,"name":"Zoe Mudgett Hertz Apartments","qualityScore":9,"lon":149.09275817871094,"maxOccupancy":2,"lat":-35.389888763427734},{"locationScore":8,"price":475,"nights":19,"name":"Stew Ng AirBnB","qualityScore":5,"lon":149.0156707763672,"maxOccupancy":2,"lat":-35.30921173095703},{"locationScore":2,"price":245,"nights":22,"name":"Clara Sabell Hotel","qualityScore":3,"lon":149.03561401367188,"maxOccupancy":6,"lat":-35.15610122680664},{"locationScore":7,"price":350,"nights":25,"name":"Dee Major Motel","qualityScore":1,"lon":149.01181030273438,"maxOccupancy":3,"lat":-35.308414459228516},{"locationScore":1,"price":135,"nights":17,"name":"Dee Kay Apartments","qualityScore":2,"lon":149.0484619140625,"maxOccupancy":3,"lat":-35.309295654296875},{"locationScore":2,"price":334,"nights":4,"name":"Rob A. Bank Resort","qualityScore":9,"lon":149.0513153076172,"maxOccupancy":2,"lat":-35.103736877441406},{"locationScore":5,"price":425,"nights":8,"name":"Liv Good Resort","qualityScore":6,"lon":149.06642150878906,"maxOccupancy":5,"lat":-35.34244918823242},{"locationScore":6,"price":525,"nights":5,"name":"Rick Kleiner Hotel","qualityScore":9,"lon":149.00332641601562,"maxOccupancy":4,"lat":-35.29473876953125},{"locationScore":7,"price":345,"nights":6,"name":"Barb Dwyer AirBnB","qualityScore":2,"lon":149.05548095703125,"maxOccupancy":1,"lat":-35.1301155090332},{"locationScore":2,"price":295,"nights":19,"name":"Ali Katt Hotel","qualityScore":8,"lon":149.08242797851562,"maxOccupancy":1,"lat":-35.15217208862305},{"locationScore":10,"price":590,"nights":11,"name":"Leo Tarred AirBnB","qualityScore":7,"lon":149.09024047851562,"maxOccupancy":1,"lat":-35.30490493774414},{"locationScore":10,"price":500,"nights":21,"name":"Anna Conda AirBnB","qualityScore":1,"lon":149.0523681640625,"maxOccupancy":5,"lat":-35.37213897705078},{"locationScore":9,"price":630,"nights":10,"name":"Corey Ander Motel","qualityScore":9,"lon":149.01217651367188,"maxOccupancy":3,"lat":-35.240604400634766},{"locationScore":9,"price":500,"nights":30,"name":"Sue Permann Resort","qualityScore":5,"lon":149.00576782226562,"maxOccupancy":1,"lat":-35.27769088745117},{"locationScore":8,"price":560,"nights":26,"name":"M. T. Toombe Hotel","qualityScore":6,"lon":149.0487823486328,"maxOccupancy":6,"lat":-35.367523193359375},{"locationScore":3,"price":225,"nights":21,"name":"Jim Laucher Hotel","qualityScore":3,"lon":149.0227813720703,"maxOccupancy":2,"lat":-35.13018798828125},{"locationScore":4,"price":350,"nights":1,"name":"Juan Morefore DeRhode Resort","qualityScore":4,"lon":149.08804321289062,"maxOccupancy":6,"lat":-35.100860595703125},{"locationScore":5,"price":365,"nights":14,"name":"Ulee Daway Motel","qualityScore":3,"lon":149.05746459960938,"maxOccupancy":6,"lat":-35.34804916381836},{"locationScore":1,"price":195,"nights":10,"name":"P. Brain Hotel","qualityScore":5,"lon":149.0612030029297,"maxOccupancy":2,"lat":-35.314762115478516},{"locationScore":1,"price":175,"nights":23,"name":"Frank N. Sense Hotel","qualityScore":3,"lon":149.04075622558594,"maxOccupancy":4,"lat":-35.304718017578125},{"locationScore":3,"price":235,"nights":20,"name":"Sarah Bellum Motel","qualityScore":1,"lon":149.0370635986328,"maxOccupancy":6,"lat":-35.20106506347656},{"locationScore":8,"price":570,"nights":2,"name":"Milly Graham AirBnB","qualityScore":7,"lon":149.09671020507812,"maxOccupancy":5,"lat":-35.103519439697266},{"locationScore":9,"price":560,"nights":27,"name":"Jay Walker Motel","qualityScore":5,"lon":149.07733154296875,"maxOccupancy":5,"lat":-35.321311950683594},{"locationScore":2,"price":185,"nights":19,"name":"Jim Shu Motel","qualityScore":3,"lon":149.04588317871094,"maxOccupancy":2,"lat":-35.3635139465332},{"locationScore":9,"price":490,"nights":11,"name":"Cheri Pitts Hotel","qualityScore":4,"lon":149.03199768066406,"maxOccupancy":2,"lat":-35.174354553222656},{"locationScore":2,"price":250,"nights":6,"name":"Chris P. Wheatzenraisins AirBnB","qualityScore":5,"lon":149.04042053222656,"maxOccupancy":3,"lat":-35.22067642211914},{"locationScore":5,"price":430,"nights":27,"name":"Russell Ingleaves Resort","qualityScore":8,"lon":149.07276916503906,"maxOccupancy":2,"lat":-35.19069290161133},{"locationScore":4,"price":375,"nights":4,"name":"Rocky Mountain Motel","qualityScore":5,"lon":149.0243377685547,"maxOccupancy":6,"lat":-35.294273376464844},{"locationScore":3,"price":345,"nights":30,"name":"Ferris Wheeler Hotel","qualityScore":6,"lon":149.0859375,"maxOccupancy":5,"lat":-35.391632080078125},{"locationScore":9,"price":450,"nights":1,"name":"Allen Rench Resort","qualityScore":3,"lon":149.09413146972656,"maxOccupancy":1,"lat":-35.249916076660156},{"locationScore":5,"price":475,"nights":12,"name":"Sal Ami Hotel","qualityScore":8,"lon":149.0312042236328,"maxOccupancy":5,"lat":-35.36563491821289},{"locationScore":1,"price":355,"nights":21,"name":"Ella Vader Apartments","qualityScore":9,"lon":149.0424346923828,"maxOccupancy":6,"lat":-35.19672393798828},{"locationScore":7,"price":465,"nights":28,"name":"Crystal Glass AirBnB","qualityScore":5,"lon":149.08082580566406,"maxOccupancy":4,"lat":-35.380531311035156},{"locationScore":10,"price":520,"nights":14,"name":"Sue Flay AirBnB","qualityScore":3,"lon":149.00160217285156,"maxOccupancy":3,"lat":-35.210323333740234},{"locationScore":3,"price":360,"nights":10,"name":"Ray Zenz AirBnB","qualityScore":6,"lon":149.05160522460938,"maxOccupancy":6,"lat":-35.1260986328125},{"locationScore":8,"price":590,"nights":4,"name":"Evan Lee Arps Motel","qualityScore":9,"lon":149.05690002441406,"maxOccupancy":3,"lat":-35.34436798095703},{"locationScore":6,"price":380,"nights":30,"name":"Curt Zee Hotel","qualityScore":2,"lon":149.08169555664062,"maxOccupancy":6,"lat":-35.30621337890625},{"locationScore":7,"price":395,"nights":22,"name":"Robin DeCraydle Resort","qualityScore":4,"lon":149.05014038085938,"maxOccupancy":1,"lat":-35.263427734375},{"locationScore":3,"price":310,"nights":12,"name":"Rusty Dorr Motel","qualityScore":4,"lon":149.07640075683594,"maxOccupancy":6,"lat":-35.26720428466797},{"locationScore":8,"price":515,"nights":27,"name":"Rowan Boatman Resort","qualityScore":6,"lon":149.00135803222656,"maxOccupancy":3,"lat":-35.2693977355957},{"locationScore":9,"price":655,"nights":28,"name":"Eve Ning AirBnB","qualityScore":10,"lon":149.05055236816406,"maxOccupancy":3,"lat":-35.19287872314453},{"locationScore":7,"price":375,"nights":14,"name":"Rufus Leaking AirBnB","qualityScore":2,"lon":149.01271057128906,"maxOccupancy":3,"lat":-35.27470779418945},{"locationScore":1,"price":154,"nights":1,"name":"Tom Morrow Motel","qualityScore":4,"lon":149.066650390625,"maxOccupancy":1,"lat":-35.357688903808594},{"locationScore":9,"price":475,"nights":20,"name":"Brooke Waters Motel","qualityScore":4,"lon":149.07870483398438,"maxOccupancy":1,"lat":-35.10073471069336},{"locationScore":5,"price":290,"nights":20,"name":"Douglas S. Halfempty AirBnB","qualityScore":3,"lon":149.01385498046875,"maxOccupancy":1,"lat":-35.19607925415039},{"locationScore":8,"price":530,"nights":12,"name":"Lucy Fer Motel","qualityScore":6,"lon":149.04034423828125,"maxOccupancy":4,"lat":-35.24750518798828},{"locationScore":1,"price":280,"nights":3,"name":"Pat Downe Motel","qualityScore":9,"lon":149.04116821289062,"maxOccupancy":1,"lat":-35.341346740722656},{"locationScore":4,"price":350,"nights":16,"name":"Howard I. No Hotel","qualityScore":4,"lon":149.0095977783203,"maxOccupancy":6,"lat":-35.28342056274414},{"locationScore":5,"price":459,"nights":19,"name":"Darren Deeds Hotel","qualityScore":8,"lon":149.033447265625,"maxOccupancy":4,"lat":-35.15021896362305},{"locationScore":6,"price":430,"nights":2,"name":"P. Brain Resort","qualityScore":4,"lon":149.01925659179688,"maxOccupancy":6,"lat":-35.37543487548828},{"locationScore":6,"price":305,"nights":21,"name":"X. Benedict Resort","qualityScore":2,"lon":149.00717163085938,"maxOccupancy":1,"lat":-35.16980743408203},{"locationScore":1,"price":250,"nights":7,"name":"Sasha Klotz Resort","qualityScore":6,"lon":149.0062713623047,"maxOccupancy":4,"lat":-35.30718994140625},{"locationScore":9,"price":530,"nights":1,"name":"Kenny Dewitt AirBnB","qualityScore":5,"lon":149.03517150878906,"maxOccupancy":3,"lat":-35.13491439819336},{"locationScore":8,"price":530,"nights":23,"name":"Kareem O'Weet AirBnB","qualityScore":6,"lon":149.07594299316406,"maxOccupancy":4,"lat":-35.236419677734375},{"locationScore":2,"price":260,"nights":30,"name":"Hazel Nutt Apartments","qualityScore":6,"lon":149.03384399414062,"maxOccupancy":2,"lat":-35.12051010131836},{"locationScore":10,"price":520,"nights":26,"name":"Bart Ender Apartments","qualityScore":3,"lon":149.05679321289062,"maxOccupancy":3,"lat":-35.17251968383789},{"locationScore":6,"price":455,"nights":3,"name":"Robin Banks Motel","qualityScore":8,"lon":149.09524536132812,"maxOccupancy":1,"lat":-35.350425720214844},{"locationScore":7,"price":509,"nights":29,"name":"Ryan Coke Apartments","qualityScore":8,"lon":149.0233154296875,"maxOccupancy":2,"lat":-35.18217086791992},{"locationScore":3,"price":365,"nights":21,"name":"Ty Tass Resort","qualityScore":8,"lon":149.06666564941406,"maxOccupancy":3,"lat":-35.1719856262207},{"locationScore":5,"price":285,"nights":10,"name":"Anita Job Resort","qualityScore":1,"lon":149.092041015625,"maxOccupancy":4,"lat":-35.31829071044922},{"locationScore":2,"price":284,"nights":26,"name":"Rich Mann Motel","qualityScore":7,"lon":149.05172729492188,"maxOccupancy":2,"lat":-35.165122985839844},{"locationScore":9,"price":480,"nights":17,"name":"Faye Slift Hotel","qualityScore":3,"lon":149.02841186523438,"maxOccupancy":3,"lat":-35.3813591003418},{"locationScore":10,"price":615,"nights":18,"name":"Rusty Pipes AirBnB","qualityScore":5,"lon":149.04917907714844,"maxOccupancy":6,"lat":-35.10842514038086},{"locationScore":7,"price":570,"nights":23,"name":"Dee Major Apartments","qualityScore":8,"lon":149.08006286621094,"maxOccupancy":6,"lat":-35.291927337646484},{"locationScore":3,"price":405,"nights":28,"name":"Ali Gator Resort","qualityScore":9,"lon":149.0055389404297,"maxOccupancy":4,"lat":-35.148014068603516},{"locationScore":1,"price":305,"nights":17,"name":"Rusty Fender Motel","qualityScore":7,"lon":149.0142822265625,"maxOccupancy":6,"lat":-35.23195266723633},{"locationScore":9,"price":585,"nights":6,"name":"Emma Royds Hotel","qualityScore":6,"lon":149.0704345703125,"maxOccupancy":5,"lat":-35.223350524902344},{"locationScore":10,"price":484,"nights":15,"name":"Barb Dwyer Hotel","qualityScore":1,"lon":149.08876037597656,"maxOccupancy":4,"lat":-35.1707878112793},{"locationScore":10,"price":640,"nights":16,"name":"Rusty Blades Resort","qualityScore":9,"lon":149.014404296875,"maxOccupancy":1,"lat":-35.3033561706543},{"locationScore":2,"price":300,"nights":22,"name":"I. M. Boring Hotel","qualityScore":7,"lon":149.06031799316406,"maxOccupancy":3,"lat":-35.378875732421875},{"locationScore":3,"price":300,"nights":22,"name":"Helena Hanbaskett Resort","qualityScore":6,"lon":149.09344482421875,"maxOccupancy":2,"lat":-35.1696891784668},{"locationScore":3,"price":220,"nights":7,"name":"Ben Down Hotel","qualityScore":1,"lon":149.00970458984375,"maxOccupancy":5,"lat":-35.273277282714844},{"locationScore":6,"price":345,"nights":24,"name":"Amanda Lynn Apartments","qualityScore":3,"lon":149.04803466796875,"maxOccupancy":2,"lat":-35.161903381347656},{"locationScore":5,"price":305,"nights":24,"name":"Artie Choke Motel","qualityScore":3,"lon":149.0950164794922,"maxOccupancy":2,"lat":-35.17668151855469},{"locationScore":9,"price":590,"nights":11,"name":"Mike Czech Motel","qualityScore":8,"lon":149.05825805664062,"maxOccupancy":2,"lat":-35.28064727783203},{"locationScore":5,"price":335,"nights":2,"name":"Sy Burnette Motel","qualityScore":3,"lon":149.04664611816406,"maxOccupancy":4,"lat":-35.15597152709961},{"locationScore":1,"price":215,"nights":7,"name":"Oscar Ruitt Hotel","qualityScore":4,"lon":149.00363159179688,"maxOccupancy":5,"lat":-35.209075927734375},{"locationScore":6,"price":480,"nights":11,"name":"Faye Slift AirBnB","qualityScore":9,"lon":149.0988311767578,"maxOccupancy":1,"lat":-35.12516403198242},{"locationScore":9,"price":685,"nights":22,"name":"Wanda Rinn Hotel","qualityScore":10,"lon":149.09628295898438,"maxOccupancy":5,"lat":-35.39673614501953},{"locationScore":5,"price":430,"nights":22,"name":"Tanya Hyde Resort","qualityScore":8,"lon":149.0883026123047,"maxOccupancy":2,"lat":-35.27535629272461},{"locationScore":10,"price":700,"nights":15,"name":"Mike Stand Hotel","qualityScore":9,"lon":149.04197692871094,"maxOccupancy":5,"lat":-35.151512145996094},{"locationScore":10,"price":500,"nights":1,"name":"Maude L. T. Ford Resort","qualityScore":1,"lon":149.00120544433594,"maxOccupancy":5,"lat":-35.23797607421875},{"locationScore":10,"price":695,"nights":25,"name":"Adam Meway Motel","qualityScore":10,"lon":149.00953674316406,"maxOccupancy":3,"lat":-35.202728271484375},{"locationScore":5,"price":390,"nights":22,"name":"Doug Hole Resort","qualityScore":4,"lon":149.07708740234375,"maxOccupancy":6,"lat":-35.240840911865234},{"locationScore":5,"price":340,"nights":24,"name":"Marsha Mellow Hotel","qualityScore":5,"lon":149.06082153320312,"maxOccupancy":1,"lat":-35.27364730834961},{"locationScore":5,"price":484,"nights":2,"name":"Daisy Chain Resort","qualityScore":9,"lon":149.02084350585938,"maxOccupancy":4,"lat":-35.37379837036133},{"locationScore":4,"price":370,"nights":25,"name":"Otto Graf Apartments","qualityScore":6,"lon":149.06776428222656,"maxOccupancy":4,"lat":-35.19121170043945},{"locationScore":9,"price":595,"nights":9,"name":"Mel Practiss Resort","qualityScore":7,"lon":149.01380920410156,"maxOccupancy":4,"lat":-35.362342834472656},{"locationScore":1,"price":225,"nights":16,"name":"Stan Still AirBnB","qualityScore":5,"lon":149.01971435546875,"maxOccupancy":4,"lat":-35.25012969970703},{"locationScore":10,"price":615,"nights":4,"name":"Ira Fuse AirBnB","qualityScore":5,"lon":149.0024871826172,"maxOccupancy":6,"lat":-35.26548385620117},{"locationScore":6,"price":580,"nights":12,"name":"Rod N. Reel Hotel","qualityScore":10,"lon":149.0785675048828,"maxOccupancy":6,"lat":-35.35361099243164},{"locationScore":1,"price":235,"nights":8,"name":"Sal Minella Apartments","qualityScore":6,"lon":149.0411376953125,"maxOccupancy":3,"lat":-35.357421875},{"locationScore":9,"price":655,"nights":19,"name":"Cammie Sole AirBnB","qualityScore":10,"lon":149.0596466064453,"maxOccupancy":3,"lat":-35.36943817138672},{"locationScore":8,"price":390,"nights":12,"name":"Bob Katz Hotel","qualityScore":1,"lon":149.04312133789062,"maxOccupancy":3,"lat":-35.30911636352539},{"locationScore":4,"price":215,"nights":19,"name":"Marge Innastraightline Resort","qualityScore":1,"lon":149.00230407714844,"maxOccupancy":2,"lat":-35.195316314697266},{"locationScore":9,"price":655,"nights":16,"name":"Hazel Nutt Apartments","qualityScore":10,"lon":149.00013732910156,"maxOccupancy":3,"lat":-35.357852935791016},{"locationScore":9,"price":610,"nights":22,"name":"May Day Apartments","qualityScore":7,"lon":149.04635620117188,"maxOccupancy":5,"lat":-35.15267562866211},{"locationScore":9,"price":425,"nights":22,"name":"Dee Zaster Apartments","qualityScore":2,"lon":149.00534057617188,"maxOccupancy":1,"lat":-35.36225509643555},{"locationScore":7,"price":405,"nights":18,"name":"Claire DeAir Hotel","qualityScore":2,"lon":149.08966064453125,"maxOccupancy":5,"lat":-35.108726501464844},{"locationScore":3,"price":415,"nights":25,"name":"Val Veeta Motel","qualityScore":10,"lon":149.05848693847656,"maxOccupancy":3,"lat":-35.11651611328125},{"locationScore":8,"price":550,"nights":12,"name":"Scott Shawn DeRocks Hotel","qualityScore":8,"lon":149.0281219482422,"maxOccupancy":2,"lat":-35.20849609375},{"locationScore":5,"price":459,"nights":17,"name":"Clara Nett Hotel","qualityScore":8,"lon":149.0247039794922,"maxOccupancy":4,"lat":-35.122840881347656},{"locationScore":9,"price":650,"nights":17,"name":"Faye Tallity Apartments","qualityScore":8,"lon":149.02859497070312,"maxOccupancy":6,"lat":-35.30992126464844},{"locationScore":2,"price":320,"nights":19,"name":"Iona Ford Apartments","qualityScore":9,"lon":149.05780029296875,"maxOccupancy":1,"lat":-35.355560302734375},{"locationScore":7,"price":425,"nights":29,"name":"Will Wynn AirBnB","qualityScore":4,"lon":149.03700256347656,"maxOccupancy":3,"lat":-35.34178924560547},{"locationScore":4,"price":270,"nights":10,"name":"Al Gore Rythim Apartments","qualityScore":2,"lon":149.0504150390625,"maxOccupancy":4,"lat":-35.398780822753906},{"locationScore":7,"price":520,"nights":22,"name":"Bjorn Free Apartments","qualityScore":9,"lon":149.02806091308594,"maxOccupancy":1,"lat":-35.38435363769531},{"locationScore":6,"price":370,"nights":29,"name":"Ty Coon Resort","qualityScore":4,"lon":149.0872344970703,"maxOccupancy":2,"lat":-35.104888916015625},{"locationScore":10,"price":535,"nights":18,"name":"Daisy Picking Motel","qualityScore":3,"lon":149.02859497070312,"maxOccupancy":4,"lat":-35.398555755615234},{"locationScore":1,"price":105,"nights":24,"name":"Brook Lynn Bridge Apartments","qualityScore":2,"lon":149.09393310546875,"maxOccupancy":1,"lat":-35.39739990234375},{"locationScore":10,"price":590,"nights":1,"name":"Haywood Jashootmee AirBnB","qualityScore":7,"lon":149.05398559570312,"maxOccupancy":1,"lat":-35.3410530090332},{"locationScore":8,"price":450,"nights":16,"name":"Iona Corolla Hotel","qualityScore":4,"lon":149.07154846191406,"maxOccupancy":2,"lat":-35.11492156982422},{"locationScore":7,"price":535,"nights":10,"name":"Pepe C. Cola Apartments","qualityScore":9,"lon":149.02467346191406,"maxOccupancy":2,"lat":-35.200801849365234},{"locationScore":4,"price":345,"nights":5,"name":"Bess Eaton Apartments","qualityScore":5,"lon":149.00900268554688,"maxOccupancy":4,"lat":-35.1861686706543},{"locationScore":2,"price":420,"nights":9,"name":"Allen Rench Hotel","qualityScore":10,"lon":149.05154418945312,"maxOccupancy":6,"lat":-35.37900161743164},{"locationScore":5,"price":365,"nights":28,"name":"Jacklyn Hyde AirBnB","qualityScore":6,"lon":149.09487915039062,"maxOccupancy":1,"lat":-35.39299774169922},{"locationScore":2,"price":160,"nights":20,"name":"Bo D. Satva Resort","qualityScore":2,"lon":149.0765380859375,"maxOccupancy":2,"lat":-35.25027084350586},{"locationScore":4,"price":375,"nights":26,"name":"Olive Yew Motel","qualityScore":8,"lon":149.00823974609375,"maxOccupancy":1,"lat":-35.35588073730469},{"locationScore":5,"price":380,"nights":8,"name":"Ron A. Muck Motel","qualityScore":6,"lon":149.05517578125,"maxOccupancy":2,"lat":-35.123924255371094},{"locationScore":2,"price":390,"nights":6,"name":"Jacques Strap Resort","qualityScore":10,"lon":149.0922088623047,"maxOccupancy":4,"lat":-35.134307861328125},{"locationScore":5,"price":340,"nights":3,"name":"Dan Geruss Hotel","qualityScore":2,"lon":149.0576629638672,"maxOccupancy":6,"lat":-35.105140686035156},{"locationScore":4,"price":400,"nights":3,"name":"Dusty Sandmann Apartments","qualityScore":9,"lon":149.03761291503906,"maxOccupancy":1,"lat":-35.218143463134766},{"locationScore":9,"price":505,"nights":26,"name":"Rich Mann Hotel","qualityScore":4,"lon":149.03944396972656,"maxOccupancy":3,"lat":-35.237239837646484},{"locationScore":4,"price":475,"nights":3,"name":"Abe Rudder Resort","qualityScore":9,"lon":149.0258026123047,"maxOccupancy":6,"lat":-35.11448287963867},{"locationScore":2,"price":295,"nights":13,"name":"Ali Gator Hotel","qualityScore":5,"lon":149.0319366455078,"maxOccupancy":6,"lat":-35.38433074951172},{"locationScore":4,"price":365,"nights":28,"name":"Helena Hanbaskett AirBnB","qualityScore":7,"lon":149.04083251953125,"maxOccupancy":2,"lat":-35.23585510253906},{"locationScore":7,"price":350,"nights":18,"name":"Ellie Noise Hotel","qualityScore":1,"lon":149.02301025390625,"maxOccupancy":3,"lat":-35.18458557128906},{"locationScore":6,"price":355,"nights":22,"name":"Dee Zaster Hotel","qualityScore":1,"lon":149.06568908691406,"maxOccupancy":6,"lat":-35.272823333740234},{"locationScore":6,"price":345,"nights":11,"name":"Di O'Bolic Resort","qualityScore":3,"lon":149.0587921142578,"maxOccupancy":2,"lat":-35.304588317871094},{"locationScore":3,"price":280,"nights":22,"name":"Rusty Steele Resort","qualityScore":4,"lon":149.0427703857422,"maxOccupancy":4,"lat":-35.121665954589844},{"locationScore":6,"price":550,"nights":23,"name":"Megan Bacon Hotel","qualityScore":10,"lon":149.09130859375,"maxOccupancy":4,"lat":-35.22138977050781},{"locationScore":3,"price":434,"nights":15,"name":"Marlon Fisher Resort","qualityScore":9,"lon":149.0720672607422,"maxOccupancy":6,"lat":-35.377986907958984},{"locationScore":10,"price":440,"nights":8,"name":"Phil DeGrave AirBnB","qualityScore":1,"lon":149.02658081054688,"maxOccupancy":1,"lat":-35.20931625366211},{"locationScore":8,"price":385,"nights":15,"name":"Oren Jellow Motel","qualityScore":2,"lon":149.0653076171875,"maxOccupancy":1,"lat":-35.18203353881836},{"locationScore":4,"price":300,"nights":24,"name":"Carrie Oakey AirBnB","qualityScore":5,"lon":149.07850646972656,"maxOccupancy":1,"lat":-35.213199615478516},{"locationScore":4,"price":325,"nights":3,"name":"Al Luminum Motel","qualityScore":6,"lon":149.0933380126953,"maxOccupancy":1,"lat":-35.38717269897461},{"locationScore":8,"price":580,"nights":24,"name":"Rip Torn Motel","qualityScore":8,"lon":149.0611114501953,"maxOccupancy":4,"lat":-35.2079963684082},{"locationScore":8,"price":445,"nights":17,"name":"Rocky Rhoades Motel","qualityScore":2,"lon":149.04373168945312,"maxOccupancy":5,"lat":-35.276485443115234},{"locationScore":10,"price":455,"nights":11,"name":"Ben Crobbery Motel","qualityScore":1,"lon":149.0856475830078,"maxOccupancy":2,"lat":-35.304443359375},{"locationScore":6,"price":360,"nights":28,"name":"Jo King Resort","qualityScore":3,"lon":149.0707550048828,"maxOccupancy":3,"lat":-35.13697814941406},{"locationScore":10,"price":550,"nights":7,"name":"Yule B. Sari Motel","qualityScore":3,"lon":149.0997314453125,"maxOccupancy":5,"lat":-35.19210433959961},{"locationScore":1,"price":305,"nights":3,"name":"Anna Prentice Hotel","qualityScore":10,"lon":149.0769500732422,"maxOccupancy":1,"lat":-35.23106002807617},{"locationScore":8,"price":470,"nights":10,"name":"Mel Function Resort","qualityScore":3,"lon":149.03968811035156,"maxOccupancy":5,"lat":-35.34011459350586},{"locationScore":7,"price":575,"nights":25,"name":"Kristie Hannity Resort","qualityScore":10,"lon":149.05506896972656,"maxOccupancy":3,"lat":-35.36013412475586},{"locationScore":5,"price":360,"nights":6,"name":"Lou Stooth Resort","qualityScore":4,"lon":149.04464721679688,"maxOccupancy":4,"lat":-35.359371185302734},{"locationScore":4,"price":315,"nights":19,"name":"Chris Mass Motel","qualityScore":5,"lon":149.0953826904297,"maxOccupancy":2,"lat":-35.27518844604492},{"locationScore":10,"price":690,"nights":17,"name":"Seymour Legg Motel","qualityScore":8,"lon":149.0106201171875,"maxOccupancy":6,"lat":-35.278907775878906},{"locationScore":3,"price":405,"nights":30,"name":"Taylor Maid Resort","qualityScore":9,"lon":149.08380126953125,"maxOccupancy":4,"lat":-35.17424774169922},{"locationScore":2,"price":370,"nights":18,"name":"Marsha Dimes Hotel","qualityScore":8,"lon":149.00112915039062,"maxOccupancy":6,"lat":-35.32128143310547},{"locationScore":4,"price":420,"nights":21,"name":"Ben Down Hotel","qualityScore":8,"lon":149.04710388183594,"maxOccupancy":4,"lat":-35.28095245361328},{"locationScore":7,"price":435,"nights":9,"name":"Ben Thair Apartments","qualityScore":5,"lon":149.03433227539062,"maxOccupancy":2,"lat":-35.32598876953125},{"locationScore":3,"price":390,"nights":5,"name":"Sir Fin Waves Hotel","qualityScore":9,"lon":149.0290985107422,"maxOccupancy":3,"lat":-35.223487854003906},{"locationScore":3,"price":265,"nights":7,"name":"Sawyer B. Hind Apartments","qualityScore":4,"lon":149.03671264648438,"maxOccupancy":3,"lat":-35.14944076538086},{"locationScore":3,"price":445,"nights":10,"name":"Sally Forth Apartments","qualityScore":10,"lon":149.04974365234375,"maxOccupancy":5,"lat":-35.397216796875},{"locationScore":4,"price":400,"nights":6,"name":"Nick L. Andime Motel","qualityScore":6,"lon":149.08328247070312,"maxOccupancy":6,"lat":-35.21030807495117},{"locationScore":10,"price":740,"nights":18,"name":"Ferris Wheeler AirBnB","qualityScore":10,"lon":149.06353759765625,"maxOccupancy":6,"lat":-35.15377426147461},{"locationScore":10,"price":650,"nights":30,"name":"Sandy C. Shore Apartments","qualityScore":7,"lon":149.08460998535156,"maxOccupancy":5,"lat":-35.37105178833008},{"locationScore":1,"price":240,"nights":21,"name":"Billy Rubin Motel","qualityScore":5,"lon":149.05636596679688,"maxOccupancy":5,"lat":-35.297237396240234},{"locationScore":2,"price":345,"nights":28,"name":"Terry Achey Motel","qualityScore":7,"lon":149.02227783203125,"maxOccupancy":6,"lat":-35.30070877075195},{"locationScore":5,"price":484,"nights":12,"name":"Rory Storm Resort","qualityScore":9,"lon":149.01072692871094,"maxOccupancy":4,"lat":-35.119754791259766},{"locationScore":6,"price":305,"nights":18,"name":"Olive Green Resort","qualityScore":2,"lon":149.00503540039062,"maxOccupancy":1,"lat":-35.1405143737793},{"locationScore":4,"price":455,"nights":23,"name":"Frank Enstein Motel","qualityScore":10,"lon":149.09136962890625,"maxOccupancy":3,"lat":-35.162689208984375},{"locationScore":9,"price":600,"nights":10,"name":"Cole Kutz AirBnB","qualityScore":6,"lon":149.08145141601562,"maxOccupancy":6,"lat":-35.15171813964844},{"locationScore":4,"price":409,"nights":18,"name":"Ginger Rayl Apartments","qualityScore":7,"lon":149.0714874267578,"maxOccupancy":5,"lat":-35.255062103271484},{"locationScore":4,"price":350,"nights":17,"name":"Quimby Ingmeen Hotel","qualityScore":4,"lon":149.05923461914062,"maxOccupancy":6,"lat":-35.20813751220703},{"locationScore":8,"price":475,"nights":18,"name":"Carlotta Tendant Hotel","qualityScore":5,"lon":149.0910186767578,"maxOccupancy":2,"lat":-35.108154296875},{"locationScore":4,"price":300,"nights":6,"name":"Cy Kosis AirBnB","qualityScore":5,"lon":149.01284790039062,"maxOccupancy":1,"lat":-35.31218338012695},{"locationScore":4,"price":409,"nights":21,"name":"Hare Brain Hotel","qualityScore":7,"lon":149.06590270996094,"maxOccupancy":5,"lat":-35.304595947265625},{"locationScore":4,"price":300,"nights":30,"name":"Ben Lyon Apartments","qualityScore":5,"lon":149.0670623779297,"maxOccupancy":1,"lat":-35.29388427734375},{"locationScore":1,"price":105,"nights":19,"name":"Barry Shmelly AirBnB","qualityScore":2,"lon":149.0784912109375,"maxOccupancy":1,"lat":-35.215152740478516},{"locationScore":3,"price":345,"nights":1,"name":"Myra Maines Apartments","qualityScore":6,"lon":149.02345275878906,"maxOccupancy":5,"lat":-35.37605285644531},{"locationScore":3,"price":375,"nights":12,"name":"Alf Abet AirBnB","qualityScore":9,"lon":149.09674072265625,"maxOccupancy":2,"lat":-35.23234939575195},{"locationScore":1,"price":300,"nights":26,"name":"Otto Whackew Motel","qualityScore":8,"lon":149.0850372314453,"maxOccupancy":4,"lat":-35.34733963012695},{"locationScore":2,"price":284,"nights":19,"name":"Ed Ible Hotel","qualityScore":7,"lon":149.01759338378906,"maxOccupancy":2,"lat":-35.38227462768555},{"locationScore":6,"price":405,"nights":22,"name":"Evan Lee Arps Resort","qualityScore":6,"lon":149.0377655029297,"maxOccupancy":1,"lat":-35.17578125},{"locationScore":5,"price":270,"nights":3,"name":"Rusty Nails Resort","qualityScore":1,"lon":149.0555419921875,"maxOccupancy":3,"lat":-35.26454162597656},{"locationScore":7,"price":470,"nights":15,"name":"Helen Highwater Motel","qualityScore":4,"lon":149.06143188476562,"maxOccupancy":6,"lat":-35.378944396972656},{"locationScore":2,"price":145,"nights":8,"name":"Brock Lee Resort","qualityScore":2,"lon":149.0600128173828,"maxOccupancy":1,"lat":-35.15584945678711},{"locationScore":5,"price":360,"nights":8,"name":"Ferris Wheeler Resort","qualityScore":4,"lon":149.04452514648438,"maxOccupancy":4,"lat":-35.276546478271484},{"locationScore":1,"price":154,"nights":7,"name":"Frank N. Beans Resort","qualityScore":1,"lon":149.0149383544922,"maxOccupancy":6,"lat":-35.13457107543945},{"locationScore":9,"price":565,"nights":16,"name":"Dusty Storm Apartments","qualityScore":7,"lon":149.00021362304688,"maxOccupancy":2,"lat":-35.15278625488281},{"locationScore":5,"price":330,"nights":15,"name":"Lou Dan Obseen Hotel","qualityScore":4,"lon":149.07107543945312,"maxOccupancy":2,"lat":-35.36329650878906},{"locationScore":7,"price":385,"nights":12,"name":"Cody Pendant Apartments","qualityScore":3,"lon":149.06797790527344,"maxOccupancy":2,"lat":-35.34781265258789},{"locationScore":7,"price":480,"nights":23,"name":"Hy Marx Apartments","qualityScore":5,"lon":149.0311737060547,"maxOccupancy":5,"lat":-35.21339416503906},{"locationScore":4,"price":409,"nights":10,"name":"Ty Tass Motel","qualityScore":7,"lon":149.07846069335938,"maxOccupancy":5,"lat":-35.31086730957031},{"locationScore":2,"price":165,"nights":9,"name":"Bill Dollar Apartments","qualityScore":1,"lon":149.0167999267578,"maxOccupancy":4,"lat":-35.11678695678711},{"locationScore":5,"price":459,"nights":9,"name":"Alf Abet Apartments","qualityScore":8,"lon":149.0363311767578,"maxOccupancy":4,"lat":-35.232730865478516},{"locationScore":3,"price":190,"nights":19,"name":"Annie Matter AirBnB","qualityScore":1,"lon":149.03988647460938,"maxOccupancy":3,"lat":-35.38074493408203},