[{"locationScore":4,"price":350,"nights":18,"name":"Considine-Ferry","qualityScore":7,"lon":149.0050506591797,"maxOccupancy":1,"lat":-35.17783737182617},{"locationScore":7,"price":540,"nights":18,"name":"Smith-Rogahn","qualityScore":8,"lon":149.03732299804688,"maxOccupancy":4,"lat":-35.375770568847656},{"locationScore":2,"price":185,"nights":11,"name":"Rempel and Sons","qualityScore":3,"lon":149.01983642578125,"maxOccupancy":2,"lat":-35.122108459472656},{"locationScore":1,"price":235,"nights":20,"name":"Hickle Inc","qualityScore":6,"lon":149.0812225341797,"maxOccupancy":3,"lat":-35.30690002441406},{"locationScore":7,"price":484,"nights":10,"name":"Lehner, Mayer and Mitchell","qualityScore":7,"lon":149.05526733398438,"maxOccupancy":2,"lat":-35.133636474609375},{"locationScore":9,"price":610,"nights":22,"name":"Medhurst-Macejkovic","qualityScore":7,"lon":149.01890563964844,"maxOccupancy":5,"lat":-35.11306381225586},{"locationScore":6,"price":505,"nights":6,"name":"Goyette and Sons","qualityScore":10,"lon":149.01382446289062,"maxOccupancy":1,"lat":-35.29928970336914},{"locationScore":1,"price":254,"nights":25,"name":"D'Amore-Langworth","qualityScore":5,"lon":149.0345458984375,"maxOccupancy":6,"lat":-35.32822036743164},{"locationScore":5,"price":465,"nights":19,"name":"Weissnat, Krajcik and Ondricka","qualityScore":7,"lon":149.09719848632812,"maxOccupancy":6,"lat":-35.15523910522461},{"locationScore":3,"price":290,"nights":27,"name":"Hermann Inc","qualityScore":5,"lon":149.06564331054688,"maxOccupancy":3,"lat":-35.3493766784668},{"locationScore":5,"price":265,"nights":19,"name":"Flatley-Beer","qualityScore":2,"lon":149.08544921875,"maxOccupancy":1,"lat":-35.2173957824707},{"locationScore":9,"price":640,"nights":3,"name":"Lowe Group","qualityScore":10,"lon":149.08335876464844,"maxOccupancy":2,"lat":-35.362911224365234},{"locationScore":1,"price":320,"nights":24,"name":"Kub LLC","qualityScore":10,"lon":149.04925537109375,"maxOccupancy":2,"lat":-35.1235466003418},{"locationScore":3,"price":250,"nights":25,"name":"Lowe Group","qualityScore":4,"lon":149.05908203125,"maxOccupancy":2,"lat":-35.26313018798828},{"locationScore":7,"price":470,"nights":13,"name":"Homenick and Sons","qualityScore":7,"lon":149.06307983398438,"maxOccupancy":1,"lat":-35.32696533203125},{"locationScore":8,"price":459,"nights":2,"name":"Gutkowski, Hermann and Braun","qualityScore":2,"lon":149.0503692626953,"maxOccupancy":6,"lat":-35.39786911010742},{"locationScore":9,"price":415,"nights":14,"name":"Ritchie Group","qualityScore":1,"lon":149.00462341308594,"maxOccupancy":2,"lat":-35.109012603759766},{"locationScore":3,"price":310,"nights":25,"name":"Fritsch Group","qualityScore":7,"lon":149.09942626953125,"maxOccupancy":1,"lat":-35.19295883178711},{"locationScore":4,"price":380,"nights":1,"name":"Langworth and Sons","qualityScore":7,"lon":149.08609008789062,"maxOccupancy":3,"lat":-35.17646789550781},{"locationScore":4,"price":229,"nights":25,"name":"Conroy Inc","qualityScore":1,"lon":149.0443572998047,"maxOccupancy":3,"lat":-35.39377975463867},{"locationScore":1,"price":175,"nights":16,"name":"Hilpert, Schiller and Legros","qualityScore":3,"lon":149.0538330078125,"maxOccupancy":4,"lat":-35.285465240478516},{"locationScore":3,"price":235,"nights":11,"name":"Little Inc","qualityScore":1,"lon":149.0119171142578,"maxOccupancy":6,"lat":-35.166404724121094},{"locationScore":8,"price":484,"nights":10,"name":"Rau-Kub","qualityScore":3,"lon":149.02200317382812,"maxOccupancy":6,"lat":-35.246612548828125},{"locationScore":1,"price":340,"nights":2,"name":"Schumm-Kassulke","qualityScore":9,"lon":149.01522827148438,"maxOccupancy":5,"lat":-35.31095504760742},{"locationScore":3,"price":265,"nights":7,"name":"West, Halvorson and Hyatt","qualityScore":4,"lon":149.086669921875,"maxOccupancy":3,"lat":-35.200687408447266},{"locationScore":1,"price":365,"nights":24,"name":"Torphy-Moen","qualityScore":10,"lon":149.03933715820312,"maxOccupancy":5,"lat":-35.25743865966797},{"locationScore":7,"price":470,"nights":20,"name":"Heathcote Group","qualityScore":7,"lon":149.08775329589844,"maxOccupancy":1,"lat":-35.39839553833008},{"locationScore":6,"price":350,"nights":23,"name":"Sawayn-Halvorson","qualityScore":2,"lon":149.03805541992188,"maxOccupancy":4,"lat":-35.2307243347168},{"locationScore":9,"price":625,"nights":2,"name":"Ryan-Bartell","qualityScore":7,"lon":149.086669921875,"maxOccupancy":6,"lat":-35.33425521850586},{"locationScore":9,"price":700,"nights":26,"name":"Kutch, Bergstrom and Weber","qualityScore":10,"lon":149.01065063476562,"maxOccupancy":6,"lat":-35.24088668823242},{"locationScore":7,"price":420,"nights":27,"name":"Smitham-Schuppe","qualityScore":5,"lon":149.0752410888672,"maxOccupancy":1,"lat":-35.18937301635742},{"locationScore":1,"price":335,"nights":28,"name":"Mayert-Bednar","qualityScore":10,"lon":149.00570678710938,"maxOccupancy":3,"lat":-35.372684478759766},{"locationScore":7,"price":475,"nights":15,"name":"Larkin Inc","qualityScore":6,"lon":149.09373474121094,"maxOccupancy":3,"lat":-35.271812438964844},{"locationScore":4,"price":375,"nights":19,"name":"Windler-Schuster","qualityScore":8,"lon":149.0362548828125,"maxOccupancy":1,"lat":-35.12081527709961},{"locationScore":6,"price":280,"nights":29,"name":"Block, Strosin and Pfannerstill","qualityScore":1,"lon":149.05833435058594,"maxOccupancy":1,"lat":-35.350345611572266},{"locationScore":2,"price":420,"nights":19,"name":"Harris-Oberbrunner","qualityScore":10,"lon":149.0714874267578,"maxOccupancy":6,"lat":-35.24350357055664},{"locationScore":6,"price":320,"nights":3,"name":"Sawayn, Rutherford and Hoeger","qualityScore":2,"lon":149.07679748535156,"maxOccupancy":2,"lat":-35.176761627197266},{"locationScore":10,"price":495,"nights":12,"name":"Schroeder-Shanahan","qualityScore":2,"lon":149.01931762695312,"maxOccupancy":3,"lat":-35.34684371948242},{"locationScore":4,"price":325,"nights":6,"name":"O'Connell Inc","qualityScore":6,"lon":149.08853149414062,"maxOccupancy":1,"lat":-35.35557556152344},{"locationScore":6,"price":505,"nights":21,"name":"Smitham, Rippin and Armstrong","qualityScore":10,"lon":149.07293701171875,"maxOccupancy":1,"lat":-35.266658782958984},{"locationScore":1,"price":260,"nights":3,"name":"Wiegand, Reichel and MacGyver","qualityScore":7,"lon":149.02720642089844,"maxOccupancy":3,"lat":-35.24545669555664},{"locationScore":3,"price":355,"nights":15,"name":"Stamm-Cummings","qualityScore":7,"lon":149.08865356445312,"maxOccupancy":4,"lat":-35.19755935668945},{"locationScore":5,"price":285,"nights":20,"name":"Batz, Langosh and Grant","qualityScore":1,"lon":149.0692596435547,"maxOccupancy":4,"lat":-35.16374206542969},{"locationScore":7,"price":320,"nights":9,"name":"McLaughlin, Beahan and Goyette","qualityScore":1,"lon":149.08702087402344,"maxOccupancy":1,"lat":-35.334083557128906},{"locationScore":9,"price":595,"nights":1,"name":"Prohaska and Sons","qualityScore":7,"lon":149.05584716796875,"maxOccupancy":4,"lat":-35.28995132446289},{"locationScore":5,"price":340,"nights":2,"name":"Ondricka-Orn","qualityScore":2,"lon":149.0542449951172,"maxOccupancy":6,"lat":-35.303462982177734},{"locationScore":4,"price":330,"nights":23,"name":"Considine-Strosin","qualityScore":5,"lon":149.0355224609375,"maxOccupancy":3,"lat":-35.153961181640625},{"locationScore":1,"price":254,"nights":27,"name":"Oberbrunner Group","qualityScore":8,"lon":149.01231384277344,"maxOccupancy":1,"lat":-35.190582275390625},{"locationScore":7,"price":405,"nights":25,"name":"Feeney-Bailey","qualityScore":2,"lon":149.0520782470703,"maxOccupancy":5,"lat":-35.303707122802734},{"locationScore":2,"price":275,"nights":5,"name":"Emard-Goldner","qualityScore":6,"lon":149.05868530273438,"maxOccupancy":3,"lat":-35.3032112121582},{"locationScore":7,"price":484,"nights":27,"name":"Leuschke, Kuphal and Beier","qualityScore":7,"lon":149.05453491210938,"maxOccupancy":2,"lat":-35.331512451171875},{"locationScore":2,"price":185,"nights":11,"name":"Weber-Wisozk","qualityScore":3,"lon":149.04945373535156,"maxOccupancy":2,"lat":-35.10981369018555},{"locationScore":4,"price":270,"nights":15,"name":"Watsica-Wiza","qualityScore":2,"lon":149.04132080078125,"maxOccupancy":4,"lat":-35.32994079589844},{"locationScore":1,"price":204,"nights":24,"name":"Rolfson LLC","qualityScore":6,"lon":149.04945373535156,"maxOccupancy":1,"lat":-35.37649917602539},{"locationScore":2,"price":300,"nights":15,"name":"Yost LLC","qualityScore":7,"lon":149.00564575195312,"maxOccupancy":3,"lat":-35.131309509277344},{"locationScore":7,"price":560,"nights":10,"name":"Renner Inc","qualityScore":10,"lon":149.05258178710938,"maxOccupancy":2,"lat":-35.34669494628906},{"locationScore":1,"price":229,"nights":26,"name":"Turcotte-McDermott","qualityScore":4,"lon":149.05941772460938,"maxOccupancy":6,"lat":-35.16976547241211},{"locationScore":10,"price":650,"nights":17,"name":"Bartell-Hagenes","qualityScore":7,"lon":149.02590942382812,"maxOccupancy":5,"lat":-35.174537658691406},{"locationScore":6,"price":540,"nights":20,"name":"Simonis, Schmeler and Jacobi","qualityScore":9,"lon":149.09347534179688,"maxOccupancy":5,"lat":-35.20377731323242},{"locationScore":7,"price":425,"nights":29,"name":"Schmeler-Gleichner","qualityScore":4,"lon":149.05615234375,"maxOccupancy":3,"lat":-35.1552734375},{"locationScore":9,"price":475,"nights":12,"name":"Veum-Emmerich","qualityScore":1,"lon":149.04649353027344,"maxOccupancy":6,"lat":-35.138004302978516},{"locationScore":2,"price":204,"nights":20,"name":"Greenholt Inc","qualityScore":2,"lon":149.02223205566406,"maxOccupancy":5,"lat":-35.17481231689453},{"locationScore":3,"price":215,"nights":22,"name":"Hudson, Walker and Pagac","qualityScore":2,"lon":149.09677124023438,"maxOccupancy":3,"lat":-35.227256774902344},{"locationScore":7,"price":345,"nights":13,"name":"Kilback, Satterfield and Cruickshank","qualityScore":2,"lon":149.0400848388672,"maxOccupancy":1,"lat":-35.243534088134766},{"locationScore":1,"price":130,"nights":6,"name":"Powlowski and Sons","qualityScore":3,"lon":149.05123901367188,"maxOccupancy":1,"lat":-35.198089599609375},{"locationScore":7,"price":570,"nights":7,"name":"Lowe, Nader and Conn","qualityScore":8,"lon":149.0728759765625,"maxOccupancy":6,"lat":-35.1207160949707},{"locationScore":7,"price":545,"nights":10,"name":"Runolfsson Group","qualityScore":10,"lon":149.05772399902344,"maxOccupancy":1,"lat":-35.254215240478516},{"locationScore":10,"price":440,"nights":13,"name":"Powlowski, Gusikowski and Tremblay","qualityScore":1,"lon":149.0829315185547,"maxOccupancy":1,"lat":-35.19686508178711},{"locationScore":5,"price":434,"nights":11,"name":"Cremin, Monahan and Murazik","qualityScore":7,"lon":149.02687072753906,"maxOccupancy":4,"lat":-35.184513092041016},{"locationScore":10,"price":640,"nights":1,"name":"White, Jones and King","qualityScore":6,"lon":149.07101440429688,"maxOccupancy":6,"lat":-35.16873550415039},{"locationScore":7,"price":370,"nights":23,"name":"Boyer Group","qualityScore":3,"lon":149.07083129882812,"maxOccupancy":1,"lat":-35.26399612426758},{"locationScore":10,"price":665,"nights":27,"name":"Kessler, Blick and Reilly","qualityScore":10,"lon":149.06846618652344,"maxOccupancy":1,"lat":-35.24069595336914},{"locationScore":10,"price":580,"nights":5,"name":"Gleichner LLC","qualityScore":6,"lon":149.09471130371094,"maxOccupancy":2,"lat":-35.1511344909668},{"locationScore":4,"price":350,"nights":24,"name":"Price LLC","qualityScore":4,"lon":149.07171630859375,"maxOccupancy":6,"lat":-35.35582733154297},{"locationScore":2,"price":350,"nights":27,"name":"Reynolds, Armstrong and Abernathy","qualityScore":9,"lon":149.03909301757812,"maxOccupancy":3,"lat":-35.264339447021484},{"locationScore":7,"price":530,"nights":27,"name":"Champlin-Glover","qualityScore":7,"lon":149.0538330078125,"maxOccupancy":5,"lat":-35.229373931884766},{"locationScore":9,"price":700,"nights":8,"name":"Trantow, Windler and Thompson","qualityScore":10,"lon":149.04786682128906,"maxOccupancy":6,"lat":-35.366844177246094},{"locationScore":6,"price":450,"nights":3,"name":"Witting, Bernier and Murray","qualityScore":6,"lon":149.0117645263672,"maxOccupancy":4,"lat":-35.21809387207031},{"locationScore":7,"price":345,"nights":28,"name":"Shields-Bashirian","qualityScore":2,"lon":149.02630615234375,"maxOccupancy":1,"lat":-35.25571823120117},{"locationScore":7,"price":530,"nights":3,"name":"Metz and Sons","qualityScore":7,"lon":149.07911682128906,"maxOccupancy":5,"lat":-35.34321594238281},{"locationScore":6,"price":500,"nights":13,"name":"Von, Pagac and Cremin","qualityScore":8,"lon":149.06826782226562,"maxOccupancy":4,"lat":-35.316219329833984},{"locationScore":1,"price":135,"nights":16,"name":"Abshire Inc","qualityScore":2,"lon":149.01583862304688,"maxOccupancy":3,"lat":-35.3381233215332},{"locationScore":1,"price":190,"nights":8,"name":"Feeney LLC","qualityScore":3,"lon":149.04861450195312,"maxOccupancy":5,"lat":-35.34801483154297},{"locationScore":9,"price":560,"nights":2,"name":"Schmitt Group","qualityScore":5,"lon":149.0974884033203,"maxOccupancy":5,"lat":-35.24861526489258},{"locationScore":5,"price":395,"nights":21,"name":"Hills Group","qualityScore":6,"lon":149.0335693359375,"maxOccupancy":3,"lat":-35.3523063659668},{"locationScore":3,"price":340,"nights":27,"name":"Wuckert-Crooks","qualityScore":7,"lon":149.03477478027344,"maxOccupancy":3,"lat":-35.37282943725586},{"locationScore":7,"price":530,"nights":2,"name":"Goldner-Oberbrunner","qualityScore":7,"lon":149.01576232910156,"maxOccupancy":5,"lat":-35.29749298095703},{"locationScore":5,"price":470,"nights":21,"name":"Huel, MacGyver and Beer","qualityScore":9,"lon":149.03286743164062,"maxOccupancy":3,"lat":-35.32722473144531},{"locationScore":9,"price":580,"nights":23,"name":"Daniel Inc","qualityScore":7,"lon":149.09671020507812,"maxOccupancy":3,"lat":-35.3909797668457},{"locationScore":4,"price":290,"nights":16,"name":"Will, Schinner and Friesen","qualityScore":4,"lon":149.01600646972656,"maxOccupancy":2,"lat":-35.11647415161133},{"locationScore":3,"price":260,"nights":9,"name":"Rowe Inc","qualityScore":2,"lon":149.05352783203125,"maxOccupancy":6,"lat":-35.11339569091797},{"locationScore":7,"price":400,"nights":9,"name":"Auer-Frami","qualityScore":3,"lon":149.02789306640625,"maxOccupancy":3,"lat":-35.30924987792969},{"locationScore":7,"price":580,"nights":15,"name":"Haley, McLaughlin and Hermiston","qualityScore":9,"lon":149.03125,"maxOccupancy":5,"lat":-35.232051849365234},{"locationScore":1,"price":95,"nights":19,"name":"Hermann-Walsh","qualityScore":1,"lon":149.0384521484375,"maxOccupancy":2,"lat":-35.2840576171875},{"locationScore":9,"price":500,"nights":29,"name":"Heller-Haag","qualityScore":2,"lon":149.01210021972656,"maxOccupancy":6,"lat":-35.16838455200195},{"locationScore":4,"price":229,"nights":2,"name":"Nitzsche and Sons","qualityScore":1,"lon":149.02828979492188,"maxOccupancy":3,"lat":-35.253501892089844},{"locationScore":9,"price":455,"nights":12,"name":"Shanahan LLC","qualityScore":2,"lon":149.04751586914062,"maxOccupancy":3,"lat":-35.34099578857422},{"locationScore":1,"price":240,"nights":13,"name":"Gulgowski-Quigley","qualityScore":5,"lon":149.05465698242188,"maxOccupancy":5,"lat":-35.35931396484375},{"locationScore":4,"price":400,"nights":16,"name":"Bayer LLC","qualityScore":6,"lon":149.09246826171875,"maxOccupancy":6,"lat":-35.33465576171875},{"locationScore":10,"price":680,"nights":15,"name":"Witting Group","qualityScore":10,"lon":149.06283569335938,"maxOccupancy":2,"lat":-35.30198287963867},{"locationScore":6,"price":360,"nights":26,"name":"Larson LLC","qualityScore":3,"lon":149.0013885498047,"maxOccupancy":3,"lat":-35.326995849609375},{"locationScore":7,"price":435,"nights":29,"name":"Hayes Inc","qualityScore":5,"lon":149.0715789794922,"maxOccupancy":2,"lat":-35.23853302001953},{"locationScore":10,"price":625,"nights":20,"name":"Farrell-Ratke","qualityScore":6,"lon":149.0021209716797,"maxOccupancy":5,"lat":-35.35856628417969},{"locationScore":8,"price":475,"nights":19,"name":"Oberbrunner, Stroman and Lang","qualityScore":5,"lon":149.0169677734375,"maxOccupancy":2,"lat":-35.20060348510742},{"locationScore":6,"price":490,"nights":17,"name":"Rempel Inc","qualityScore":7,"lon":149.0358428955078,"maxOccupancy":5,"lat":-35.30803680419922},{"locationScore":1,"price":240,"nights":4,"name":"Auer Inc","qualityScore":5,"lon":149.06793212890625,"maxOccupancy":5,"lat":-35.21651840209961},{"locationScore":6,"price":445,"nights":15,"name":"Legros-Huels","qualityScore":7,"lon":149.0856170654297,"maxOccupancy":2,"lat":-35.180667877197266},{"locationScore":7,"price":395,"nights":20,"name":"Stokes, Shields and Herzog","qualityScore":1,"lon":149.06744384765625,"maxOccupancy":6,"lat":-35.1192512512207},{"locationScore":7,"price":390,"nights":22,"name":"Auer LLC","qualityScore":2,"lon":149.0181121826172,"maxOccupancy":4,"lat":-35.26180648803711},{"locationScore":4,"price":325,"nights":15,"name":"Tillman Group","qualityScore":3,"lon":149.091064453125,"maxOccupancy":6,"lat":-35.3043098449707},{"locationScore":7,"price":530,"nights":29,"name":"Kovacek and Sons","qualityScore":7,"lon":149.06063842773438,"maxOccupancy":5,"lat":-35.305152893066406},{"locationScore":7,"price":495,"nights":14,"name":"Auer-Wiza","qualityScore":5,"lon":149.04115295410156,"maxOccupancy":6,"lat":-35.22414779663086},{"locationScore":4,"price":330,"nights":8,"name":"Oberbrunner Inc","qualityScore":5,"lon":149.06028747558594,"maxOccupancy":3,"lat":-35.322509765625},{"locationScore":10,"price":615,"nights":28,"name":"Streich-West","qualityScore":8,"lon":149.09930419921875,"maxOccupancy":1,"lat":-35.339630126953125},{"locationScore":7,"price":435,"nights":15,"name":"Stoltenberg Inc","qualityScore":5,"lon":149.03021240234375,"maxOccupancy":2,"lat":-35.222991943359375},{"locationScore":3,"price":360,"nights":14,"name":"Krajcik, Volkman and Carter","qualityScore":6,"lon":149.0859832763672,"maxOccupancy":6,"lat":-35.353572845458984},{"locationScore":2,"price":204,"nights":28,"name":"Padberg-Hammes","qualityScore":2,"lon":149.03965759277344,"maxOccupancy":5,"lat":-35.197914123535156},{"locationScore":7,"price":595,"nights":29,"name":"Bahringer, Marks and Wisozk","qualityScore":9,"lon":149.016357421875,"maxOccupancy":6,"lat":-35.15058517456055},{"locationScore":5,"price":540,"nights":1,"name":"Rohan and Sons","qualityScore":10,"lon":149.03407287597656,"maxOccupancy":6,"lat":-35.196624755859375},{"locationScore":3,"price":270,"nights":15,"name":"Hoppe Group","qualityScore":3,"lon":149.09422302246094,"maxOccupancy":5,"lat":-35.12394714355469},{"locationScore":7,"price":320,"nights":21,"name":"Ritchie LLC","qualityScore":1,"lon":149.0667724609375,"maxOccupancy":1,"lat":-35.348567962646484},{"locationScore":2,"price":330,"nights":12,"name":"Mertz, Towne and Sipes","qualityScore":7,"lon":149.04417419433594,"maxOccupancy":5,"lat":-35.1607551574707},{"locationScore":3,"price":380,"nights":13,"name":"Kshlerin-Goldner","qualityScore":8,"lon":149.04776000976562,"maxOccupancy":4,"lat":-35.22035217285156},{"locationScore":8,"price":580,"nights":8,"name":"Nikolaus, Schuppe and Turner","qualityScore":8,"lon":149.0997772216797,"maxOccupancy":4,"lat":-35.14759063720703},{"locationScore":3,"price":240,"nights":11,"name":"MacGyver Group","qualityScore":3,"lon":149.08367919921875,"maxOccupancy":3,"lat":-35.29160690307617},{"locationScore":8,"price":385,"nights":4,"name":"Wehner-Torp","qualityScore":2,"lon":149.0375213623047,"maxOccupancy":1,"lat":-35.379547119140625},{"locationScore":7,"price":520,"nights":14,"name":"Halvorson, Block and Yost","qualityScore":6,"lon":149.03659057617188,"maxOccupancy":6,"lat":-35.18048858642578},{"locationScore":8,"price":660,"nights":26,"name":"Yost, Abbott and Pacocha","qualityScore":10,"lon":149.07925415039062,"maxOccupancy":6,"lat":-35.175621032714844},{"locationScore":9,"price":430,"nights":8,"name":"Gaylord, Breitenberg and Gislason","qualityScore":1,"lon":149.01272583007812,"maxOccupancy":3,"lat":-35.36541748046875},{"locationScore":10,"price":565,"nights":17,"name":"Rath, Jenkins and Kunze","qualityScore":3,"lon":149.07923889160156,"maxOccupancy":6,"lat":-35.205604553222656},{"locationScore":1,"price":254,"nights":23,"name":"Christiansen-Cartwright","qualityScore":5,"lon":149.02395629882812,"maxOccupancy":6,"lat":-35.251956939697266},{"locationScore":10,"price":710,"nights":27,"name":"Mills, Frami and Toy","qualityScore":10,"lon":149.0241241455078,"maxOccupancy":4,"lat":-35.29015350341797},{"locationScore":4,"price":400,"nights":23,"name":"Cassin-Keeling","qualityScore":6,"lon":149.01722717285156,"maxOccupancy":6,"lat":-35.21818542480469},{"locationScore":7,"price":370,"nights":9,"name":"Jaskolski-Hoeger","qualityScore":3,"lon":149.00845336914062,"maxOccupancy":1,"lat":-35.28313446044922},{"locationScore":7,"price":475,"nights":1,"name":"Pouros LLC","qualityScore":6,"lon":149.03768920898438,"maxOccupancy":3,"lat":-35.18402099609375},{"locationScore":6,"price":375,"nights":2,"name":"Gutmann-Funk","qualityScore":3,"lon":149.0161895751953,"maxOccupancy":4,"lat":-35.158302307128906},{"locationScore":4,"price":280,"nights":8,"name":"Robel, Jenkins and Koelpin","qualityScore":3,"lon":149.0790557861328,"maxOccupancy":3,"lat":-35.263370513916016},{"locationScore":4,"price":254,"nights":14,"name":"Krajcik, Howe and Waters","qualityScore":2,"lon":149.0461883544922,"maxOccupancy":3,"lat":-35.19096755981445},{"locationScore":8,"price":515,"nights":22,"name":"Kunde LLC","qualityScore":6,"lon":149.05718994140625,"maxOccupancy":3,"lat":-35.34685134887695},{"locationScore":5,"price":440,"nights":7,"name":"Glover-Orn","qualityScore":9,"lon":149.03201293945312,"maxOccupancy":1,"lat":-35.22734451293945},{"locationScore":8,"price":555,"nights":13,"name":"Bayer Inc","qualityScore":7,"lon":149.0460662841797,"maxOccupancy":4,"lat":-35.37826919555664},{"locationScore":1,"price":190,"nights":9,"name":"Bogisich, Feest and Conroy","qualityScore":3,"lon":149.0319366455078,"maxOccupancy":5,"lat":-35.2126579284668},{"locationScore":4,"price":390,"nights":20,"name":"Aufderhar, Hirthe and Von","qualityScore":8,"lon":149.0944061279297,"maxOccupancy":2,"lat":-35.33280563354492},{"locationScore":2,"price":215,"nights":24,"name":"Spinka, O'Keefe and Goodwin","qualityScore":3,"lon":149.02294921875,"maxOccupancy":4,"lat":-35.38511657714844},{"locationScore":2,"price":370,"nights":13,"name":"Cruickshank, Paucek and Pacocha","qualityScore":8,"lon":149.0517120361328,"maxOccupancy":6,"lat":-35.30807876586914},{"locationScore":3,"price":420,"nights":12,"name":"Crona LLC","qualityScore":9,"lon":149.03355407714844,"maxOccupancy":5,"lat":-35.232139587402344},{"locationScore":3,"price":345,"nights":28,"name":"Quigley and Sons","qualityScore":6,"lon":149.00672912597656,"maxOccupancy":5,"lat":-35.131591796875},{"locationScore":10,"price":660,"nights":30,"name":"Weissnat-Durgan","qualityScore":8,"lon":149.0676727294922,"maxOccupancy":4,"lat":-35.23277282714844},{"locationScore":3,"price":405,"nights":28,"name":"Kulas Group","qualityScore":9,"lon":149.0631561279297,"maxOccupancy":4,"lat":-35.17713165283203},{"locationScore":1,"price":120,"nights":28,"name":"Heaney and Sons","qualityScore":2,"lon":149.01808166503906,"maxOccupancy":2,"lat":-35.32406997680664},{"locationScore":9,"price":675,"nights":5,"name":"Reinger and Sons","qualityScore":9,"lon":149.05703735351562,"maxOccupancy":6,"lat":-35.226890563964844},{"locationScore":4,"price":459,"nights":3,"name":"Schimmel, Rosenbaum and Wolff","qualityScore":9,"lon":149.07078552246094,"maxOccupancy":5,"lat":-35.11802291870117},{"locationScore":9,"price":660,"nights":21,"name":"Beatty, Spencer and Beatty","qualityScore":9,"lon":149.0707550048828,"maxOccupancy":5,"lat":-35.301570892333984},{"locationScore":4,"price":335,"nights":27,"name":"Hammes and Sons","qualityScore":4,"lon":149.07595825195312,"maxOccupancy":5,"lat":-35.260555267333984},{"locationScore":4,"price":385,"nights":18,"name":"Johnson and Sons","qualityScore":6,"lon":149.00669860839844,"maxOccupancy":5,"lat":-35.39356994628906},{"locationScore":6,"price":490,"nights":10,"name":"Ferry-Kuhn","qualityScore":7,"lon":149.08775329589844,"maxOccupancy":5,"lat":-35.256187438964844},{"locationScore":8,"price":375,"nights":30,"name":"Cruickshank-Gleichner","qualityScore":1,"lon":149.09104919433594,"maxOccupancy":2,"lat":-35.243255615234375},{"locationScore":1,"price":80,"nights":10,"name":"Lehner-Waelchi","qualityScore":1,"lon":149.0729522705078,"maxOccupancy":1,"lat":-35.13682556152344},{"locationScore":4,"price":395,"nights":14,"name":"Russel, Howe and Nikolaus","qualityScore":7,"lon":149.05149841308594,"maxOccupancy":4,"lat":-35.209285736083984},{"locationScore":3,"price":395,"nights":13,"name":"Goldner, Welch and Hahn","qualityScore":8,"lon":149.08956909179688,"maxOccupancy":5,"lat":-35.2237434387207},{"locationScore":3,"price":445,"nights":5,"name":"O'Hara LLC","qualityScore":10,"lon":149.0186309814453,"maxOccupancy":5,"lat":-35.14350128173828},{"locationScore":9,"price":640,"nights":3,"name":"Nader, Kozey and Dickens","qualityScore":10,"lon":149.06494140625,"maxOccupancy":2,"lat":-35.327125549316406},{"locationScore":4,"price":275,"nights":17,"name":"Leannon and Sons","qualityScore":4,"lon":149.08656311035156,"maxOccupancy":1,"lat":-35.13209915161133},{"locationScore":8,"price":615,"nights":11,"name":"Casper-Schmidt","qualityScore":10,"lon":149.04307556152344,"maxOccupancy":3,"lat":-35.244544982910156},{"locationScore":7,"price":320,"nights":11,"name":"Kilback, Glover and Kovacek","qualityScore":1,"lon":149.0279541015625,"maxOccupancy":1,"lat":-35.22697448730469},{"locationScore":1,"price":179,"nights":24,"name":"Kuvalis-Johnson","qualityScore":2,"lon":149.04888916015625,"maxOccupancy":6,"lat":-35.11929702758789},{"locationScore":2,"price":275,"nights":25,"name":"Ledner, Kuhlman and Crist","qualityScore":6,"lon":149.0171356201172,"maxOccupancy":3,"lat":-35.336551666259766},{"locationScore":4,"price":470,"nights":28,"name":"Russel, Friesen and Bashirian","qualityScore":10,"lon":149.07289123535156,"maxOccupancy":4,"lat":-35.20228958129883},{"locationScore":8,"price":610,"nights":13,"name":"Feil-Hilpert","qualityScore":8,"lon":149.09515380859375,"maxOccupancy":6,"lat":-35.3712272644043},{"locationScore":10,"price":675,"nights":21,"name":"Kunze Inc","qualityScore":8,"lon":149.0404510498047,"maxOccupancy":5,"lat":-35.34160232543945},{"locationScore":3,"price":310,"nights":10,"name":"Howe and Sons","qualityScore":4,"lon":149.0145721435547,"maxOccupancy":6,"lat":-35.144752502441406},{"locationScore":10,"price":670,"nights":20,"name":"Stracke Inc","qualityScore":9,"lon":149.08872985839844,"maxOccupancy":3,"lat":-35.204750061035156},{"locationScore":10,"price":515,"nights":7,"name":"Bednar-Sipes","qualityScore":1,"lon":149.082275390625,"maxOccupancy":6,"lat":-35.39529037475586},{"locationScore":7,"price":405,"nights":29,"name":"Luettgen-Schmitt","qualityScore":2,"lon":149.06317138671875,"maxOccupancy":5,"lat":-35.28845977783203},{"locationScore":6,"price":520,"nights":16,"name":"Schneider Group","qualityScore":10,"lon":149.05340576171875,"maxOccupancy":2,"lat":-35.3363151550293},{"locationScore":4,"price":305,"nights":26,"name":"Sanford, Boehm and Kassulke","qualityScore":4,"lon":149.00901794433594,"maxOccupancy":3,"lat":-35.194889068603516},{"locationScore":7,"price":470,"nights":5,"name":"Rutherford, Mante and Ruecker","qualityScore":4,"lon":149.00149536132812,"maxOccupancy":6,"lat":-35.13211441040039},{"locationScore":7,"price":484,"nights":23,"name":"Halvorson, Abshire and Hauck","qualityScore":7,"lon":149.00717163085938,"maxOccupancy":2,"lat":-35.27341842651367},{"locationScore":7,"price":420,"nights":24,"name":"Casper Group","qualityScore":5,"lon":149.05477905273438,"maxOccupancy":1,"lat":-35.270965576171875},{"locationScore":2,"price":345,"nights":8,"name":"Bruen, Waters and Lesch","qualityScore":10,"lon":149.08563232421875,"maxOccupancy":1,"lat":-35.152103424072266},{"locationScore":3,"price":390,"nights":23,"name":"VonRueden-Hickle","qualityScore":9,"lon":149.0553436279297,"maxOccupancy":3,"lat":-35.313873291015625},{"locationScore":2,"price":270,"nights":5,"name":"Marvin LLC","qualityScore":4,"lon":149.0667724609375,"maxOccupancy":6,"lat":-35.18693161010742},{"locationScore":5,"price":240,"nights":9,"name":"Muller and Sons","qualityScore":1,"lon":149.00375366210938,"maxOccupancy":1,"lat":-35.31141662597656},{"locationScore":4,"price":375,"nights":24,"name":"Reichel, Hettinger and Sipes","qualityScore":5,"lon":149.03744506835938,"maxOccupancy":6,"lat":-35.35279083251953},{"locationScore":7,"price":375,"nights":15,"name":"Vandervort-Homenick","qualityScore":2,"lon":149.03042602539062,"maxOccupancy":3,"lat":-35.31673049926758},{"locationScore":4,"price":320,"nights":26,"name":"Wisozk-Rowe","qualityScore":4,"lon":149.0948028564453,"maxOccupancy":4,"lat":-35.11433792114258},{"locationScore":8,"price":540,"nights":11,"name":"Feest-Kautzer","qualityScore":7,"lon":149.00384521484375,"maxOccupancy":3,"lat":-35.29038619995117},{"locationScore":10,"price":590,"nights":14,"name":"Lueilwitz and Sons","qualityScore":7,"lon":149.03118896484375,"maxOccupancy":1,"lat":-35.16368103027344},{"locationScore":2,"price":359,"nights":17,"name":"Bogisich Inc","qualityScore":10,"lon":149.00709533691406,"maxOccupancy":2,"lat":-35.28224563598633},{"locationScore":3,"price":285,"nights":16,"name":"Rippin LLC","qualityScore":3,"lon":149.01974487304688,"maxOccupancy":6,"lat":-35.17510986328125},{"locationScore":9,"price":660,"nights":18,"name":"Volkman and Sons","qualityScore":9,"lon":149.08065795898438,"maxOccupancy":5,"lat":-35.22544860839844},{"locationScore":5,"price":350,"nights":24,"name":"Jakubowski, Rodriguez and Senger","qualityScore":3,"lon":149.0068817138672,"maxOccupancy":5,"lat":-35.223731994628906},{"locationScore":7,"price":410,"nights":17,"name":"Miller-Hammes","qualityScore":4,"lon":149.0348663330078,"maxOccupancy":2,"lat":-35.15628433227539},{"locationScore":4,"price":310,"nights":17,"name":"Dach, Hilll and Koch","qualityScore":3,"lon":149.056396484375,"maxOccupancy":5,"lat":-35.17832946777344},{"locationScore":1,"price":244,"nights":13,"name":"Greenfelder-Oberbrunner","qualityScore":7,"lon":149.04869079589844,"maxOccupancy":2,"lat":-35.148109436035156},{"locationScore":9,"price":500,"nights":1,"name":"Kuhic LLC","qualityScore":5,"lon":149.0321502685547,"maxOccupancy":1,"lat":-35.23075485229492},{"locationScore":2,"price":380,"nights":22,"name":"Crona and Sons","qualityScore":9,"lon":149.01458740234375,"maxOccupancy":5,"lat":-35.16318893432617},{"locationScore":9,"price":530,"nights":26,"name":"Mayert, Braun and Boehm","qualityScore":5,"lon":149.00485229492188,"maxOccupancy":3,"lat":-35.151390075683594},{"locationScore":9,"price":505,"nights":5,"name":"Zemlak-Hintz","qualityScore":4,"lon":149.00982666015625,"maxOccupancy":3,"lat":-35.179508209228516},{"locationScore":2,"price":405,"nights":20,"name":"Hessel, Harris and Wilderman","qualityScore":10,"lon":149.0849609375,"maxOccupancy":5,"lat":-35.28759765625},{"locationScore":7,"price":435,"nights":29,"name":"Schinner, Franecki and Reynolds","qualityScore":5,"lon":149.02244567871094,"maxOccupancy":2,"lat":-35.26298141479492},{"locationScore":4,"price":385,"nights":8,"name":"O'Kon and Sons","qualityScore":6,"lon":149.07408142089844,"maxOccupancy":5,"lat":-35.2890739440918},{"locationScore":10,"price":665,"nights":17,"name":"Kovacek and Sons","qualityScore":10,"lon":149.06082153320312,"maxOccupancy":1,"lat":-35.354103088378906},{"locationScore":2,"price":210,"nights":7,"name":"Funk Group","qualityScore":4,"lon":149.0074005126953,"maxOccupancy":2,"lat":-35.27936553955078},{"locationScore":7,"price":465,"nights":4,"name":"Haley-DuBuque","qualityScore":5,"lon":149.0078887939453,"maxOccupancy":4,"lat":-35.22236251831055},{"locationScore":6,"price":380,"nights":26,"name":"Mraz and Sons","qualityScore":2,"lon":149.08624267578125,"maxOccupancy":6,"lat":-35.288299560546875},{"locationScore":7,"price":550,"nights":21,"name":"Lebsack and Sons","qualityScore":9,"lon":149.04747009277344,"maxOccupancy":3,"lat":-35.264892578125},{"locationScore":4,"price":275,"nights":15,"name":"Aufderhar Inc","qualityScore":1,"lon":149.04481506347656,"maxOccupancy":6,"lat":-35.34796905517578},{"locationScore":9,"price":565,"nights":15,"name":"Lang-Jacobs","qualityScore":7,"lon":149.09786987304688,"maxOccupancy":2,"lat":-35.26667022705078},{"locationScore":8,"price":635,"nights":1,"name":"Keebler Inc","qualityScore":9,"lon":149.01597595214844,"maxOccupancy":6,"lat":-35.38045883178711},{"locationScore":5,"price":480,"nights":26,"name":"Wiza-Little","qualityScore":10,"lon":149.01853942871094,"maxOccupancy":2,"lat":-35.17909240722656},{"locationScore":8,"price":459,"nights":20,"name":"Schulist-Oberbrunner","qualityScore":5,"lon":149.08363342285156,"maxOccupancy":1,"lat":-35.203269958496094},{"locationScore":6,"price":425,"nights":2,"name":"Walsh, Gutmann and Powlowski","qualityScore":5,"lon":149.0433807373047,"maxOccupancy":4,"lat":-35.26913833618164},{"locationScore":10,"price":715,"nights":5,"name":"Bergstrom-Becker","qualityScore":9,"lon":149.09458923339844,"maxOccupancy":6,"lat":-35.347450256347656},{"locationScore":4,"price":215,"nights":27,"name":"DuBuque and Sons","qualityScore":1,"lon":149.09890747070312,"maxOccupancy":2,"lat":-35.35147476196289},{"locationScore":2,"price":290,"nights":17,"name":"Bechtelar Group","qualityScore":6,"lon":149.02938842773438,"maxOccupancy":4,"lat":-35.361202239990234},{"locationScore":7,"price":575,"nights":26,"name":"O'Conner, Heller and Abbott","qualityScore":10,"lon":149.05062866210938,"maxOccupancy":3,"lat":-35.27640151977539},{"locationScore":2,"price":320,"nights":27,"name":"Batz, Nikolaus and Ledner","qualityScore":9,"lon":149.06381225585938,"maxOccupancy":1,"lat":-35.310489654541016},{"locationScore":8,"price":575,"nights":28,"name":"Streich Group","qualityScore":9,"lon":149.02294921875,"maxOccupancy":2,"lat":-35.34417724609375},{"locationScore":7,"price":380,"nights":13,"name":"Gorczany, Hickle and Homenick","qualityScore":1,"lon":149.0218963623047,"maxOccupancy":5,"lat":-35.12830352783203},{"locationScore":7,"price":520,"nights":23,"name":"Schimmel, Lemke and Osinski","qualityScore":9,"lon":149.04896545410156,"maxOccupancy":1,"lat":-35.364749908447266},{"locationScore":7,"price":535,"nights":27,"name":"Schmeler-Simonis","qualityScore":9,"lon":149.09555053710938,"maxOccupancy":2,"lat":-35.211246490478516},{"locationScore":7,"price":545,"nights":20,"name":"Mohr Inc","qualityScore":7,"lon":149.04220581054688,"maxOccupancy":6,"lat":-35.246585845947266},{"locationScore":3,"price":200,"nights":6,"name":"O'Hara and Sons","qualityScore":2,"lon":149.06838989257812,"maxOccupancy":2,"lat":-35.35965347290039},{"locationScore":6,"price":410,"nights":7,"name":"Kautzer and Sons","qualityScore":5,"lon":149.0603485107422,"maxOccupancy":3,"lat":-35.17036056518555},{"locationScore":9,"price":400,"nights":1,"name":"Runte-Bauch","qualityScore":1,"lon":149.0050811767578,"maxOccupancy":1,"lat":-35.36397933959961},{"locationScore":6,"price":380,"nights":3,"name":"Kihn, Schimmel and Romaguera","qualityScore":5,"lon":149.0487518310547,"maxOccupancy":1,"lat":-35.176387786865234},{"locationScore":5,"price":455,"nights":11,"name":"Nitzsche, Cummerata and Kshlerin","qualityScore":9,"lon":149.0877227783203,"maxOccupancy":2,"lat":-35.30237579345703},{"locationScore":10,"price":580,"nights":27,"name":"Stokes, Upton and Cassin","qualityScore":6,"lon":149.05125427246094,"maxOccupancy":2,"lat":-35.138641357421875},{"locationScore":5,"price":280,"nights":20,"name":"Yost and Sons","qualityScore":2,"lon":149.07305908203125,"maxOccupancy":2,"lat":-35.144161224365234},{"locationScore":10,"price":565,"nights":26,"name":"Mayert Inc","qualityScore":3,"lon":149.03521728515625,"maxOccupancy":6,"lat":-35.13414764404297},{"locationScore":4,"price":405,"nights":8,"name":"Tremblay Inc","qualityScore":8,"lon":149.09854125976562,"maxOccupancy":3,"lat":-35.10071563720703},{"locationScore":5,"price":500,"nights":17,"name":"Bartell, Tremblay and Bergstrom","qualityScore":9,"lon":149.06678771972656,"maxOccupancy":5,"lat":-35.392704010009766},{"locationScore":8,"price":440,"nights":10,"name":"Kub Group","qualityScore":3,"lon":149.05911254882812,"maxOccupancy":3,"lat":-35.394405364990234},{"locationScore":8,"price":440,"nights":26,"name":"McLaughlin, Kiehn and Toy","qualityScore":3,"lon":149.04595947265625,"maxOccupancy":3,"lat":-35.277557373046875},{"locationScore":9,"price":700,"nights":10,"name":"Reichel, Mante and Dicki","qualityScore":10,"lon":149.05282592773438,"maxOccupancy":6,"lat":-35.38019561767578},{"locationScore":1,"price":235,"nights":25,"name":"Hyatt-Moen","qualityScore":6,"lon":149.06906127929688,"maxOccupancy":3,"lat":-35.129173278808594},{"locationScore":9,"price":600,"nights":15,"name":"Hegmann Inc","qualityScore":6,"lon":149.0340576171875,"maxOccupancy":6,"lat":-35.271541595458984},{"locationScore":9,"price":475,"nights":21,"name":"Abbott, Cummerata and Casper","qualityScore":1,"lon":149.05966186523438,"maxOccupancy":6,"lat":-35.3787841796875},{"locationScore":3,"price":360,"nights":16,"name":"Gorczany, Haag and Blick","qualityScore":9,"lon":149.01251220703125,"maxOccupancy":1,"lat":-35.3482780456543},{"locationScore":9,"price":585,"nights":12,"name":"Ruecker, Wuckert and McGlynn","qualityScore":6,"lon":149.02703857421875,"maxOccupancy":5,"lat":-35.2108039855957},{"locationScore":10,"price":465,"nights":11,"name":"Jacobson-Dickens","qualityScore":2,"lon":149.0809783935547,"maxOccupancy":1,"lat":-35.1303596496582},{"locationScore":2,"price":135,"nights":2,"name":"Wisoky-O'Connell","qualityScore":1,"lon":149.08343505859375,"maxOccupancy":2,"lat":-35.22865295410156},{"locationScore":10,"price":540,"nights":26,"name":"Leuschke, Rutherford and Schroeder","qualityScore":5,"lon":149.09130859375,"maxOccupancy":1,"lat":-35.346893310546875},{"locationScore":4,"price":434,"nights":12,"name":"Emard, Leuschke and Kuhn","qualityScore":8,"lon":149.03355407714844,"maxOccupancy":5,"lat":-35.239559173583984},{"locationScore":4,"price":425,"nights":4,"name":"Pacocha-Lueilwitz","qualityScore":7,"lon":149.01646423339844,"maxOccupancy":6,"lat":-35.338768005371094},{"locationScore":6,"price":305,"nights":14,"name":"Monahan and Sons","qualityScore":2,"lon":149.03060913085938,"maxOccupancy":1,"lat":-35.15471267700195},{"locationScore":4,"price":315,"nights":9,"name":"Larson Inc","qualityScore":5,"lon":149.0367889404297,"maxOccupancy":2,"lat":-35.268272399902344},{"locationScore":6,"price":530,"nights":9,"name":"Johns, Quitzon and Strosin","qualityScore":8,"lon":149.05702209472656,"maxOccupancy":6,"lat":-35.261470794677734},{"locationScore":10,"price":575,"nights":6,"name":"Hayes, Predovic and Will","qualityScore":4,"lon":149.06256103515625,"maxOccupancy":5,"lat":-35.24694061279297},{"locationScore":10,"price":490,"nights":23,"name":"Crooks, Dooley and Nienow","qualityScore":3,"lon":149.0002899169922,"maxOccupancy":1,"lat":-35.126922607421875},{"locationScore":6,"price":500,"nights":17,"name":"Padberg, Schmidt and Strosin","qualityScore":8,"lon":149.0081024169922,"maxOccupancy":4,"lat":-35.29966354370117},{"locationScore":2,"price":190,"nights":27,"name":"Satterfield Inc","qualityScore":2,"lon":149.06924438476562,"maxOccupancy":4,"lat":-35.37516784667969},{"locationScore":7,"price":425,"nights":13,"name":"Langosh, Gleichner and Ratke","qualityScore":4,"lon":149.05691528320312,"maxOccupancy":3,"lat":-35.288734436035156},{"locationScore":10,"price":575,"nights":15,"name":"Cassin LLC","qualityScore":4,"lon":149.0751495361328,"maxOccupancy":5,"lat":-35.13420867919922},{"locationScore":8,"price":415,"nights":5,"name":"Kreiger-Effertz","qualityScore":2,"lon":149.0140380859375,"maxOccupancy":3,"lat":-35.1949577331543},{"locationScore":8,"price":560,"nights":8,"name":"Hagenes, Hagenes and Gibson","qualityScore":6,"lon":149.02963256835938,"maxOccupancy":6,"lat":-35.38955307006836},{"locationScore":10,"price":509,"nights":21,"name":"Strosin, Lang and Durgan","qualityScore":2,"lon":149.0248565673828,"maxOccupancy":4,"lat":-35.27749252319336},{"locationScore":4,"price":440,"nights":4,"name":"Turner Inc","qualityScore":10,"lon":149.00625610351562,"maxOccupancy":2,"lat":-35.12808609008789},{"locationScore":2,"price":315,"nights":27,"name":"Jerde LLC","qualityScore":7,"lon":149.01278686523438,"maxOccupancy":4,"lat":-35.28157043457031},{"locationScore":2,"price":170,"nights":1,"name":"Murphy, Mann and Doyle","qualityScore":3,"lon":149.0459747314453,"maxOccupancy":1,"lat":-35.30315399169922},{"locationScore":10,"price":625,"nights":13,"name":"Gleichner LLC","qualityScore":6,"lon":149.0498046875,"maxOccupancy":5,"lat":-35.170467376708984},{"locationScore":10,"price":509,"nights":23,"name":"Bayer Group","qualityScore":2,"lon":149.05831909179688,"maxOccupancy":4,"lat":-35.14533233642578},{"locationScore":9,"price":575,"nights":18,"name":"Simonis-Maggio","qualityScore":8,"lon":149.04022216796875,"maxOccupancy":1,"lat":-35.199554443359375},{"locationScore":6,"price":420,"nights":7,"name":"Fahey and Sons","qualityScore":6,"lon":149.07672119140625,"maxOccupancy":2,"lat":-35.35755920410156},{"locationScore":5,"price":280,"nights":1,"name":"Ernser, Schamberger and Buckridge","qualityScore":2,"lon":149.0706329345703,"maxOccupancy":2,"lat":-35.316104888916016},{"locationScore":7,"price":545,"nights":16,"name":"Kshlerin Group","qualityScore":7,"lon":149.04684448242188,"maxOccupancy":6,"lat":-35.340824127197266},{"locationScore":4,"price":420,"nights":23,"name":"Ebert-Reichel","qualityScore":8,"lon":149.0264434814453,"maxOccupancy":4,"lat":-35.23666763305664},{"locationScore":4,"price":300,"nights":16,"name":"Schuster-Abshire","qualityScore":5,"lon":149.08651733398438,"maxOccupancy":1,"lat":-35.35041046142578},{"locationScore":6,"price":490,"nights":29,"name":"Rolfson Group","qualityScore":7,"lon":149.00457763671875,"maxOccupancy":5,"lat":-35.36682891845703},{"locationScore":7,"price":320,"nights":8,"name":"O'Reilly-Satterfield","qualityScore":1,"lon":149.01036071777344,"maxOccupancy":1,"lat":-35.183753967285156},{"locationScore":8,"price":550,"nights":20,"name":"Collier-Roob","qualityScore":8,"lon":149.08197021484375,"maxOccupancy":2,"lat":-35.267852783203125},{"locationScore":10,"price":455,"nights":23,"name":"Harvey LLC","qualityScore":1,"lon":149.01718139648438,"maxOccupancy":2,"lat":-35.279762268066406},{"locationScore":1,"price":295,"nights":14,"name":"Nitzsche, Gutmann and Sporer","qualityScore":9,"lon":149.04153442382812,"maxOccupancy":2,"lat":-35.33622741699219},{"locationScore":8,"price":535,"nights":23,"name":"Wilderman, Buckridge and Johns","qualityScore":5,"lon":149.0245819091797,"maxOccupancy":6,"lat":-35.19584274291992},{"locationScore":2,"price":295,"nights":2,"name":"Morissette LLC","qualityScore":8,"lon":149.08448791503906,"maxOccupancy":1,"lat":-35.230567932128906},{"locationScore":4,"price":260,"nights":9,"name":"Ernser-White","qualityScore":1,"lon":149.08956909179688,"maxOccupancy":5,"lat":-35.13090515136719},{"locationScore":4,"price":260,"nights":7,"name":"Trantow Group","qualityScore":1,"lon":149.0825958251953,"maxOccupancy":5,"lat":-35.20415115356445},{"locationScore":5,"price":390,"nights":19,"name":"Altenwerth-Nikolaus","qualityScore":4,"lon":149.08338928222656,"maxOccupancy":6,"lat":-35.33839797973633},{"locationScore":1,"price":179,"nights":14,"name":"Baumbach, Champlin and Treutel","qualityScore":2,"lon":149.07437133789062,"maxOccupancy":6,"lat":-35.16852951049805},{"locationScore":4,"price":245,"nights":4,"name":"Windler LLC","qualityScore":1,"lon":149.00856018066406,"maxOccupancy":4,"lat":-35.109249114990234},{"locationScore":5,"price":415,"nights":25,"name":"Mann Group","qualityScore":5,"lon":149.0989532470703,"maxOccupancy":6,"lat":-35.32581329345703},{"locationScore":2,"price":370,"nights":9,"name":"Gutkowski-Dicki","qualityScore":8,"lon":149.04200744628906,"maxOccupancy":6,"lat":-35.38682556152344},{"locationScore":7,"price":515,"nights":11,"name":"Feil Inc","qualityScore":7,"lon":149.073486328125,"maxOccupancy":4,"lat":-35.255584716796875},{"locationScore":4,"price":305,"nights":10,"name":"Witting-Pagac","qualityScore":4,"lon":149.00286865234375,"maxOccupancy":3,"lat":-35.36841583251953},{"locationScore":9,"price":530,"nights":29,"name":"Zieme-Lemke","qualityScore":5,"lon":149.07040405273438,"maxOccupancy":3,"lat":-35.281734466552734},{"locationScore":7,"price":520,"nights":14,"name":"Upton-Bruen","qualityScore":9,"lon":149.04107666015625,"maxOccupancy":1,"lat":-35.3657112121582},{"locationScore":7,"price":450,"nights":20,"name":"Murazik LLC","qualityScore":5,"lon":149.07501220703125,"maxOccupancy":3,"lat":-35.16869354248047},{"locationScore":9,"price":525,"nights":16,"name":"Nikolaus and Sons","qualityScore":6,"lon":149.09422302246094,"maxOccupancy":1,"lat":-35.281551361083984},{"locationScore":1,"price":95,"nights":10,"name":"Green-Nader","qualityScore":1,"lon":149.02259826660156,"maxOccupancy":2,"lat":-35.314361572265625},{"locationScore":5,"price":540,"nights":13,"name":"Ullrich Inc","qualityScore":10,"lon":149.00784301757812,"maxOccupancy":6,"lat":-35.355438232421875},{"locationScore":4,"price":270,"nights":26,"name":"Fisher-Hirthe","qualityScore":2,"lon":149.01478576660156,"maxOccupancy":4,"lat":-35.214630126953125},{"locationScore":10,"price":685,"nights":13,"name":"Murray-Ortiz","qualityScore":9,"lon":149.05636596679688,"maxOccupancy":4,"lat":-35.355594635009766},{"locationScore":8,"price":465,"nights":13,"name":"Yundt, Pfannerstill and Goodwin","qualityScore":4,"lon":149.02098083496094,"maxOccupancy":3,"lat":-35.1340446472168},{"locationScore":9,"price":515,"nights":28,"name":"Mraz, Bauch and Murray","qualityScore":5,"lon":149.0601043701172,"maxOccupancy":2,"lat":-35.322269439697266},{"locationScore":3,"price":255,"nights":26,"name":"Nicolas, Lemke and Paucek","qualityScore":3,"lon":149.0240936279297,"maxOccupancy":4,"lat":-35.228363037109375},{"locationScore":10,"price":650,"nights":3,"name":"Considine Group","qualityScore":7,"lon":149.0935516357422,"maxOccupancy":5,"lat":-35.29323959350586},{"locationScore":2,"price":195,"nights":14,"name":"Runolfsson, Borer and Ziemann","qualityScore":1,"lon":149.0960693359375,"maxOccupancy":6,"lat":-35.34230422973633},{"locationScore":1,"price":154,"nights":14,"name":"McCullough Inc","qualityScore":1,"lon":149.02195739746094,"maxOccupancy":6,"lat":-35.26774597167969},{"locationScore":9,"price":590,"nights":24,"name":"McDermott-Strosin","qualityScore":8,"lon":149.0826873779297,"maxOccupancy":2,"lat":-35.1529541015625},{"locationScore":3,"price":235,"nights":10,"name":"Lemke-Reilly","qualityScore":1,"lon":149.03993225097656,"maxOccupancy":6,"lat":-35.16552734375},{"locationScore":9,"price":640,"nights":20,"name":"Padberg-Terry","qualityScore":10,"lon":149.06954956054688,"maxOccupancy":2,"lat":-35.31359100341797},{"locationScore":9,"price":555,"nights":14,"name":"Pouros-Witting","qualityScore":6,"lon":149.0965576171875,"maxOccupancy":3,"lat":-35.140560150146484},{"locationScore":6,"price":440,"nights":13,"name":"Wilkinson-Gulgowski","qualityScore":5,"lon":149.03656005859375,"maxOccupancy":5,"lat":-35.180538177490234},{"locationScore":8,"price":450,"nights":8,"name":"Abbott-Zemlak","qualityScore":4,"lon":149.05723571777344,"maxOccupancy":2,"lat":-35.16910934448242},{"locationScore":4,"price":375,"nights":14,"name":"Schowalter, Windler and Botsford","qualityScore":8,"lon":149.02342224121094,"maxOccupancy":1,"lat":-35.19802474975586},{"locationScore":5,"price":540,"nights":14,"name":"Herzog, Stiedemann and Altenwerth","qualityScore":10,"lon":149.03036499023438,"maxOccupancy":6,"lat":-35.30426025390625},{"locationScore":10,"price":575,"nights":1,"name":"Gusikowski Group","qualityScore":4,"lon":149.02037048339844,"maxOccupancy":5,"lat":-35.281925201416016},{"locationScore":8,"price":610,"nights":26,"name":"Mante, DuBuque and Windler","qualityScore":8,"lon":149.0856170654297,"maxOccupancy":6,"lat":-35.306663513183594},{"locationScore":5,"price":270,"nights":21,"name":"Ruecker-Stroman","qualityScore":1,"lon":149.00579833984375,"maxOccupancy":3,"lat":-35.35725402832031},{"locationScore":5,"price":355,"nights":18,"name":"Weber-Reinger","qualityScore":5,"lon":149.0460205078125,"maxOccupancy":2,"lat":-35.30760955810547},{"locationScore":10,"price":645,"nights":27,"name":"Fadel-Stiedemann","qualityScore":8,"lon":149.02613830566406,"maxOccupancy":3,"lat":-35.17845153808594},{"locationScore":5,"price":270,"nights":16,"name":"O'Hara-Heidenreich","qualityScore":1,"lon":149.0851593017578,"maxOccupancy":3,"lat":-35.24639892578125},{"locationScore":5,"price":345,"nights":2,"name":"Heaney-Cormier","qualityScore":4,"lon":149.0960235595703,"maxOccupancy":3,"lat":-35.32302474975586},{"locationScore":6,"price":460,"nights":9,"name":"Rice-Kautzer","qualityScore":7,"lon":149.0163116455078,"maxOccupancy":3,"lat":-35.36090087890625},{"locationScore":7,"price":560,"nights":26,"name":"West-Considine","qualityScore":10,"lon":149.0911865234375,"maxOccupancy":2,"lat":-35.113914489746094},{"locationScore":1,"price":120,"nights":11,"name":"Osinski and Sons","qualityScore":2,"lon":149.08914184570312,"maxOccupancy":2,"lat":-35.28719711303711},{"locationScore":7,"price":605,"nights":6,"name":"Hegmann, Von and Sawayn","qualityScore":10,"lon":149.0588836669922,"maxOccupancy":5,"lat":-35.37406539916992},{"locationScore":5,"price":415,"nights":26,"name":"Hilpert-Reinger","qualityScore":5,"lon":149.00083923339844,"maxOccupancy":6,"lat":-35.18131637573242},{"locationScore":2,"price":245,"nights":8,"name":"Kessler, Dare and Kautzer","qualityScore":3,"lon":149.037109375,"maxOccupancy":6,"lat":-35.16667175292969},{"locationScore":9,"price":580,"nights":21,"name":"McGlynn, Veum and Crona","qualityScore":7,"lon":149.07891845703125,"maxOccupancy":3,"lat":-35.179603576660156},{"locationScore":1,"price":244,"nights":22,"name":"Runolfsdottir-Leffler","qualityScore":7,"lon":149.00369262695312,"maxOccupancy":2,"lat":-35.26050567626953},{"locationScore":3,"price":395,"nights":18,"name":"Hartmann, Barton and Okuneva","qualityScore":8,"lon":149.06829833984375,"maxOccupancy":5,"lat":-35.33310317993164},{"locationScore":7,"price":460,"nights":7,"name":"Hudson-Hettinger","qualityScore":6,"lon":149.0782928466797,"maxOccupancy":2,"lat":-35.30254364013672},{"locationScore":6,"price":455,"nights":4,"name":"Schmidt-Kutch","qualityScore":5,"lon":149.08035278320312,"maxOccupancy":6,"lat":-35.32992172241211},{"locationScore":1,"price":120,"nights":21,"name":"Corwin LLC","qualityScore":2,"lon":149.02699279785156,"maxOccupancy":2,"lat":-35.26726150512695},{"locationScore":7,"price":565,"nights":5,"name":"Dietrich, Durgan and Halvorson","qualityScore":9,"lon":149.08291625976562,"maxOccupancy":4,"lat":-35.15422058105469},{"locationScore":4,"price":470,"nights":22,"name":"Mayert Group","qualityScore":10,"lon":149.03392028808594,"maxOccupancy":4,"lat":-35.20769500732422},{"locationScore":7,"price":595,"nights":16,"name":"Russel-Bechtelar","qualityScore":9,"lon":149.07643127441406,"maxOccupancy":6,"lat":-35.244354248046875},{"locationScore":4,"price":409,"nights":14,"name":"Adams LLC","qualityScore":7,"lon":149.05947875976562,"maxOccupancy":5,"lat":-35.39787673950195},{"locationScore":10,"price":495,"nights":21,"name":"Collins and Sons","qualityScore":2,"lon":149.0410919189453,"maxOccupancy":3,"lat":-35.33041000366211},{"locationScore":10,"price":590,"nights":18,"name":"Cronin, Dibbert and Zemlak","qualityScore":4,"lon":149.02059936523438,"maxOccupancy":6,"lat":-35.3572883605957},{"locationScore":2,"price":359,"nights":30,"name":"Littel, Fahey and Roob","qualityScore":10,"lon":149.0274658203125,"maxOccupancy":2,"lat":-35.353553771972656},{"locationScore":5,"price":345,"nights":1,"name":"Morissette and Sons","qualityScore":4,"lon":149.05819702148438,"maxOccupancy":3,"lat":-35.278533935546875},{"locationScore":3,"price":160,"nights":7,"name":"Grant LLC","qualityScore":1,"lon":149.00582885742188,"maxOccupancy":1,"lat":-35.149410247802734},{"locationScore":4,"price":409,"nights":10,"name":"Cummerata-Douglas","qualityScore":7,"lon":149.07408142089844,"maxOccupancy":5,"lat":-35.27067184448242},{"locationScore":9,"price":400,"nights":25,"name":"Kling Group","qualityScore":1,"lon":149.09071350097656,"maxOccupancy":1,"lat":-35.29391860961914},{"locationScore":1,"price":120,"nights":14,"name":"Feeney, Grady and Hegmann","qualityScore":2,"lon":149.08181762695312,"maxOccupancy":2,"lat":-35.22846984863281},{"locationScore":6,"price":350,"nights":14,"name":"Bruen-Kohler","qualityScore":2,"lon":149.0009765625,"maxOccupancy":4,"lat":-35.24372482299805},{"locationScore":8,"price":520,"nights":19,"name":"Maggio and Sons","qualityScore":5,"lon":149.04788208007812,"maxOccupancy":5,"lat":-35.176700592041016},{"locationScore":4,"price":240,"nights":4,"name":"McLaughlin Inc","qualityScore":2,"lon":149.03475952148438,"maxOccupancy":2,"lat":-35.311519622802734},{"locationScore":8,"price":484,"nights":11,"name":"Homenick-Ernser","qualityScore":3,"lon":149.0640411376953,"maxOccupancy":6,"lat":-35.31734085083008},{"locationScore":6,"price":415,"nights":30,"name":"Volkman and Sons","qualityScore":4,"lon":149.09449768066406,"maxOccupancy":5,"lat":-35.20846939086914},{"locationScore":6,"price":535,"nights":21,"name":"Streich Inc","qualityScore":10,"lon":149.06488037109375,"maxOccupancy":3,"lat":-35.26388931274414},{"locationScore":8,"price":459,"nights":28,"name":"Green-Dietrich","qualityScore":5,"lon":149.05026245117188,"maxOccupancy":1,"lat":-35.196834564208984},{"locationScore":7,"price":555,"nights":27,"name":"DuBuque-Jenkins","qualityScore":8,"lon":149.05369567871094,"maxOccupancy":5,"lat":-35.232933044433594},{"locationScore":8,"price":540,"nights":26,"name":"Hermann, Doyle and Dickens","qualityScore":7,"lon":149.02084350585938,"maxOccupancy":3,"lat":-35.26256561279297},{"locationScore":4,"price":400,"nights":19,"name":"Spencer, Cummings and Bogisich","qualityScore":6,"lon":149.05276489257812,"maxOccupancy":6,"lat":-35.21934509277344},{"locationScore":4,"price":375,"nights":30,"name":"Hand-Greenholt","qualityScore":5,"lon":149.0686798095703,"maxOccupancy":6,"lat":-35.35429382324219},{"locationScore":6,"price":365,"nights":22,"name":"Kovacek-Auer","qualityScore":2,"lon":149.0225830078125,"maxOccupancy":5,"lat":-35.11320877075195},{"locationScore":10,"price":610,"nights":28,"name":"Connelly, Reichert and Bayer","qualityScore":6,"lon":149.06613159179688,"maxOccupancy":4,"lat":-35.30609893798828},{"locationScore":6,"price":535,"nights":21,"name":"Zieme, Schneider and Swift","qualityScore":10,"lon":149.07908630371094,"maxOccupancy":3,"lat":-35.26767349243164},{"locationScore":8,"price":450,"nights":20,"name":"Ankunding Group","qualityScore":4,"lon":149.01319885253906,"maxOccupancy":2,"lat":-35.25914764404297},{"locationScore":10,"price":605,"nights":18,"name":"Harris, Cronin and Osinski","qualityScore":7,"lon":149.05267333984375,"maxOccupancy":2,"lat":-35.15564727783203},{"locationScore":3,"price":320,"nights":8,"name":"Robel Inc","qualityScore":5,"lon":149.06655883789062,"maxOccupancy":5,"lat":-35.1145133972168},{"locationScore":2,"price":309,"nights":16,"name":"Kling, Nicolas and Jacobs","qualityScore":8,"lon":149.0128173828125,"maxOccupancy":2,"lat":-35.30656814575195},{"locationScore":4,"price":265,"nights":22,"name":"Pfannerstill, Hudson and Lehner","qualityScore":3,"lon":149.0218963623047,"maxOccupancy":2,"lat":-35.25621032714844},{"locationScore":7,"price":415,"nights":25,"name":"Fay, Lowe and Gibson","qualityScore":3,"lon":149.002685546875,"maxOccupancy":4,"lat":-35.2038688659668},{"locationScore":1,"price":225,"nights":24,"name":"Goodwin-Schultz","qualityScore":5,"lon":149.05087280273438,"maxOccupancy":4,"lat":-35.20123291015625},{"locationScore":3,"price":405,"nights":15,"name":"Hills, Padberg and Hintz","qualityScore":9,"lon":149.0802001953125,"maxOccupancy":4,"lat":-35.399330139160156},{"locationScore":8,"price":555,"nights":24,"name":"Mosciski-Sauer","qualityScore":7,"lon":149.0025177001953,"maxOccupancy":4,"lat":-35.20984649658203},{"locationScore":8,"price":620,"nights":24,"name":"Dooley Inc","qualityScore":9,"lon":149.0209197998047,"maxOccupancy":5,"lat":-35.326568603515625},{"locationScore":3,"price":255,"nights":11,"name":"Yost Group","qualityScore":3,"lon":149.0902557373047,"maxOccupancy":4,"lat":-35.274227142333984},{"locationScore":7,"price":495,"nights":7,"name":"McLaughlin Inc","qualityScore":5,"lon":149.05032348632812,"maxOccupancy":6,"lat":-35.12626647949219},{"locationScore":9,"price":475,"nights":6,"name":"Batz-Schoen","qualityScore":1,"lon":149.0001983642578,"maxOccupancy":6,"lat":-35.32284927368164},{"locationScore":2,"price":260,"nights":15,"name":"Sawayn, King and Kirlin","qualityScore":6,"lon":149.01589965820312,"maxOccupancy":2,"lat":-35.24716567993164},{"locationScore":4,"price":415,"nights":7,"name":"Auer-Turcotte","qualityScore":9,"lon":149.00567626953125,"maxOccupancy":2,"lat":-35.20945358276367},{"locationScore":10,"price":740,"nights":14,"name":"Terry, Kuvalis and Rowe","qualityScore":10,"lon":149.0825958251953,"maxOccupancy":6,"lat":-35.11677551269531},{"locationScore":6,"price":400,"nights":23,"name":"Turcotte-Ratke","qualityScore":4,"lon":149.0846405029297,"maxOccupancy":4,"lat":-35.202919006347656},{"locationScore":6,"price":465,"nights":30,"name":"Boyle Inc","qualityScore":6,"lon":149.01943969726562,"maxOccupancy":5,"lat":-35.153900146484375},{"locationScore":2,"price":420,"nights":16,"name":"Moen Group","qualityScore":10,"lon":149.0218963623047,"maxOccupancy":6,"lat":-35.3641357421875},{"locationScore":7,"price":520,"nights":4,"name":"West-O'Hara","qualityScore":9,"lon":149.09283447265625,"maxOccupancy":1,"lat":-35.381813049316406},{"locationScore":6,"price":385,"nights":28,"name":"Prohaska Group","qualityScore":4,"lon":149.09207153320312,"maxOccupancy":3,"lat":-35.369937896728516},{"locationScore":6,"price":550,"nights":12,"name":"Cormier-Mayert","qualityScore":10,"lon":149.0778045654297,"maxOccupancy":4,"lat":-35.21958541870117},{"locationScore":1,"price":290,"nights":28,"name":"Lesch-Rosenbaum","qualityScore":7,"lon":149.04989624023438,"maxOccupancy":5,"lat":-35.256385803222656},{"locationScore":1,"price":305,"nights":17,"name":"Brakus LLC","qualityScore":7,"lon":149.04689025878906,"maxOccupancy":6,"lat":-35.14253616333008},{"locationScore":3,"price":305,"nights":17,"name":"MacGyver LLC","qualityScore":5,"lon":149.08847045898438,"maxOccupancy":4,"lat":-35.16463088989258},{"locationScore":5,"price":465,"nights":29,"name":"Huel-Kohler","qualityScore":10,"lon":149.08570861816406,"maxOccupancy":1,"lat":-35.28797149658203},{"locationScore":5,"price":380,"nights":11,"name":"MacGyver-Dickens","qualityScore":6,"lon":149.02488708496094,"maxOccupancy":2,"lat":-35.244258880615234},{"locationScore":9,"price":635,"nights":11,"name":"Herman-Homenick","qualityScore":8,"lon":149.072265625,"maxOccupancy":5,"lat":-35.30522537231445},{"locationScore":8,"price":615,"nights":7,"name":"Herman-Gleason","qualityScore":10,"lon":149.055419921875,"maxOccupancy":3,"lat":-35.3398551940918},{"locationScore":5,"price":540,"nights":26,"name":"King-Kreiger","qualityScore":10,"lon":149.0354461669922,"maxOccupancy":6,"lat":-35.23931884765625},{"locationScore":7,"price":515,"nights":14,"name":"Hilll-Bashirian","qualityScore":7,"lon":149.02621459960938,"maxOccupancy":4,"lat":-35.34689712524414},{"locationScore":5,"price":470,"nights":18,"name":"Metz LLC","qualityScore":9,"lon":149.08604431152344,"maxOccupancy":3,"lat":-35.364646911621094},{"locationScore":5,"price":340,"nights":25,"name":"Nolan Inc","qualityScore":2,"lon":149.03753662109375,"maxOccupancy":6,"lat":-35.18948745727539},{"locationScore":6,"price":460,"nights":9,"name":"Weber Inc","qualityScore":7,"lon":149.08872985839844,"maxOccupancy":3,"lat":-35.33171844482422},{"locationScore":5,"price":459,"nights":30,"name":"Gottlieb-Senger","qualityScore":8,"lon":149.05682373046875,"maxOccupancy":4,"lat":-35.36325454711914},{"locationScore":9,"price":450,"nights":12,"name":"Prosacco, Abernathy and Reinger","qualityScore":3,"lon":149.07554626464844,"maxOccupancy":1,"lat":-35.22878646850586},{"locationScore":2,"price":375,"nights":30,"name":"Muller and Sons","qualityScore":10,"lon":149.03170776367188,"maxOccupancy":3,"lat":-35.19668960571289},{"locationScore":8,"price":660,"nights":5,"name":"Nikolaus-Wuckert","qualityScore":10,"lon":149.09234619140625,"maxOccupancy":6,"lat":-35.22675704956055},{"locationScore":5,"price":540,"nights":10,"name":"Huel, Beahan and Ondricka","qualityScore":10,"lon":149.0652618408203,"maxOccupancy":6,"lat":-35.25986099243164},{"locationScore":2,"price":300,"nights":29,"name":"Yundt, Upton and Hansen","qualityScore":7,"lon":149.03240966796875,"maxOccupancy":3,"lat":-35.346221923828125},{"locationScore":9,"price":655,"nights":29,"name":"Kerluke LLC","qualityScore":10,"lon":149.04200744628906,"maxOccupancy":3,"lat":-35.26340866088867},{"locationScore":2,"price":345,"nights":14,"name":"Goodwin-Barrows","qualityScore":7,"lon":149.0507354736328,"maxOccupancy":6,"lat":-35.24814224243164},{"locationScore":8,"price":520,"nights":27,"name":"Grady and Sons","qualityScore":5,"lon":149.05137634277344,"maxOccupancy":5,"lat":-35.118045806884766},{"locationScore":8,"price":430,"nights":8,"name":"Koelpin-Murray","qualityScore":2,"lon":149.03451538085938,"maxOccupancy":4,"lat":-35.28418731689453},{"locationScore":10,"price":605,"nights":27,"name":"Wiegand Inc","qualityScore":7,"lon":149.0716552734375,"maxOccupancy":2,"lat":-35.11591720581055},{"locationScore":10,"price":610,"nights":29,"name":"Ferry LLC","qualityScore":6,"lon":149.0378875732422,"maxOccupancy":4,"lat":-35.390289306640625},{"locationScore":2,"price":160,"nights":10,"name":"Reichert, Lowe and Huels","qualityScore":2,"lon":149.007568359375,"maxOccupancy":2,"lat":-35.25324249267578},{"locationScore":10,"price":455,"nights":24,"name":"Zemlak-Hartmann","qualityScore":1,"lon":149.0913543701172,"maxOccupancy":2,"lat":-35.15026092529297},{"locationScore":3,"price":300,"nights":16,"name":"McDermott, Stracke and Wiza","qualityScore":6,"lon":149.0732879638672,"maxOccupancy":2,"lat":-35.36764907836914},{"locationScore":5,"price":465,"nights":10,"name":"Goyette, Hansen and Kozey","qualityScore":7,"lon":149.07962036132812,"maxOccupancy":6,"lat":-35.190162658691406},{"locationScore":9,"price":600,"nights":30,"name":"Hamill-Turner","qualityScore":6,"lon":149.0125274658203,"maxOccupancy":6,"lat":-35.24431610107422},{"locationScore":1,"price":80,"nights":21,"name":"Mayer and Sons","qualityScore":1,"lon":149.01817321777344,"maxOccupancy":1,"lat":-35.17340087890625},{"locationScore":4,"price":434,"nights":6,"name":"Morar-Greenholt","qualityScore":8,"lon":149.0328369140625,"maxOccupancy":5,"lat":-35.25967788696289},{"locationScore":3,"price":215,"nights":30,"name":"MacGyver, Boyle and Kozey","qualityScore":2,"lon":149.06260681152344,"maxOccupancy":3,"lat":-35.30028533935547},{"locationScore":6,"price":505,"nights":3,"name":"Walker-Von","qualityScore":7,"lon":149.0113525390625,"maxOccupancy":6,"lat":-35.13924026489258},{"locationScore":9,"price":545,"nights":19,"name":"Donnelly, Haley and Gleason","qualityScore":5,"lon":149.0815887451172,"maxOccupancy":4,"lat":-35.161346435546875},{"locationScore":10,"price":700,"nights":28,"name":"Yost, Schmidt and Greenfelder","qualityScore":9,"lon":149.0181121826172,"maxOccupancy":5,"lat":-35.29194641113281},{"locationScore":1,"price":190,"nights":23,"name":"Hamill-Bartell","qualityScore":3,"lon":149.03134155273438,"maxOccupancy":5,"lat":-35.153255462646484},{"locationScore":1,"price":330,"nights":12,"name":"Pacocha, Yost and Abbott","qualityScore":8,"lon":149.0867462158203,"maxOccupancy":6,"lat":-35.33502197265625},{"locationScore":4,"price":385,"nights":26,"name":"Bergstrom, Wintheiser and Russel","qualityScore":6,"lon":149.06517028808594,"maxOccupancy":5,"lat":-35.230369567871094},{"locationScore":7,"price":420,"nights":15,"name":"Windler, Jacobi and Hane","qualityScore":5,"lon":149.08355712890625,"maxOccupancy":1,"lat":-35.10368347167969},{"locationScore":8,"price":600,"nights":7,"name":"Hamill, Pollich and Conn","qualityScore":10,"lon":149.0161895751953,"maxOccupancy":2,"lat":-35.389217376708984},{"locationScore":3,"price":375,"nights":13,"name":"Grimes Group","qualityScore":9,"lon":149.0496063232422,"maxOccupancy":2,"lat":-35.16433334350586},{"locationScore":10,"price":640,"nights":28,"name":"Kohler-Schinner","qualityScore":9,"lon":149.037841796875,"maxOccupancy":1,"lat":-35.16086959838867},{"locationScore":4,"price":430,"nights":2,"name":"Barton-McLaughlin","qualityScore":9,"lon":149.0847625732422,"maxOccupancy":3,"lat":-35.36043930053711},{"locationScore":9,"price":525,"nights":7,"name":"Zboncak-Zboncak","qualityScore":6,"lon":149.09628295898438,"maxOccupancy":1,"lat":-35.326210021972656},{"locationScore":3,"price":215,"nights":28,"name":"Baumbach, Davis and Baumbach","qualityScore":2,"lon":149.0545196533203,"maxOccupancy":3,"lat":-35.35935592651367},{"locationScore":6,"price":455,"nights":22,"name":"Corkery, Kshlerin and Schimmel","qualityScore":8,"lon":149.069091796875,"maxOccupancy":1,"lat":-35.16767501831055},{"locationScore":4,"price":350,"nights":25,"name":"Cruickshank, Haag and Kling","qualityScore":7,"lon":149.0229949951172,"maxOccupancy":1,"lat":-35.35678482055664},{"locationScore":7,"price":425,"nights":27,"name":"Predovic-Wilkinson","qualityScore":4,"lon":149.03955078125,"maxOccupancy":3,"lat":-35.190704345703125},{"locationScore":5,"price":480,"nights":5,"name":"Rippin, Kris and Hoppe","qualityScore":10,"lon":149.0749969482422,"maxOccupancy":2,"lat":-35.30389404296875},{"locationScore":2,"price":245,"nights":14,"name":"Kilback, Yundt and McCullough","qualityScore":3,"lon":149.0260467529297,"maxOccupancy":6,"lat":-35.3874397277832},{"locationScore":2,"price":405,"nights":28,"name":"Purdy-Heller","qualityScore":10,"lon":149.0082550048828,"maxOccupancy":5,"lat":-35.14888381958008},{"locationScore":3,"price":345,"nights":25,"name":"Carroll, Medhurst and Padberg","qualityScore":6,"lon":149.07884216308594,"maxOccupancy":5,"lat":-35.39048767089844},{"locationScore":8,"price":430,"nights":18,"name":"Swaniawski-Marks","qualityScore":2,"lon":149.05714416503906,"maxOccupancy":4,"lat":-35.12925338745117},{"locationScore":6,"price":485,"nights":2,"name":"Labadie Group","qualityScore":8,"lon":149.0049591064453,"maxOccupancy":3,"lat":-35.37735366821289},{"locationScore":4,"price":475,"nights":6,"name":"D'Amore-Hane","qualityScore":9,"lon":149.00218200683594,"maxOccupancy":6,"lat":-35.389183044433594},{"locationScore":3,"price":370,"nights":1,"name":"Schuppe LLC","qualityScore":7,"lon":149.0779266357422,"maxOccupancy":5,"lat":-35.30548858642578},{"locationScore":5,"price":500,"nights":11,"name":"Kautzer-Nolan","qualityScore":9,"lon":149.00616455078125,"maxOccupancy":5,"lat":-35.356204986572266},{"locationScore":9,"price":560,"nights":15,"name":"Reichel and Sons","qualityScore":5,"lon":149.0966339111328,"maxOccupancy":5,"lat":-35.18909454345703},{"locationScore":8,"price":635,"nights":26,"name":"Botsford-Stiedemann","qualityScore":9,"lon":149.07711791992188,"maxOccupancy":6,"lat":-35.14662551879883},{"locationScore":10,"price":540,"nights":26,"name":"Dooley-Rogahn","qualityScore":2,"lon":149.01429748535156,"maxOccupancy":6,"lat":-35.29349899291992},{"locationScore":3,"price":385,"nights":5,"name":"Stracke-Sauer","qualityScore":10,"lon":149.04962158203125,"maxOccupancy":1,"lat":-35.33586120605469},{"locationScore":2,"price":215,"nights":26,"name":"Turcotte-Kohler","qualityScore":3,"lon":149.0593719482422,"maxOccupancy":4,"lat":-35.22993087768555},{"locationScore":5,"price":420,"nights":29,"name":"Wisoky-Hilpert","qualityScore":7,"lon":149.00584411621094,"maxOccupancy":3,"lat":-35.36033248901367},{"locationScore":3,"price":355,"nights":20,"name":"Smitham-D'Amore","qualityScore":7,"lon":149.05638122558594,"maxOccupancy":4,"lat":-35.157135009765625},{"locationScore":9,"price":640,"nights":10,"name":"Senger-Hegmann","qualityScore":10,"lon":149.0638885498047,"maxOccupancy":2,"lat":-35.295650482177734},{"locationScore":6,"price":360,"nights":2,"name":"Bernhard-Gorczany","qualityScore":3,"lon":149.07608032226562,"maxOccupancy":3,"lat":-35.14899444580078},{"locationScore":5,"price":385,"nights":17,"name":"Douglas-Reinger","qualityScore":5,"lon":149.078857421875,"maxOccupancy":4,"lat":-35.29191207885742},{"locationScore":3,"price":185,"nights":7,"name":"Rodriguez, Braun and Wilderman","qualityScore":2,"lon":149.04226684570312,"maxOccupancy":1,"lat":-35.296226501464844},{"locationScore":2,"price":355,"nights":8,"name":"Turcotte, Steuber and Koepp","qualityScore":8,"lon":149.0458984375,"maxOccupancy":5,"lat":-35.15309524536133},{"locationScore":2,"price":345,"nights":29,"name":"Schmidt, Herman and Gerlach","qualityScore":7,"lon":149.00241088867188,"maxOccupancy":6,"lat":-35.190895080566406},{"locationScore":2,"price":334,"nights":14,"name":"Rogahn, Block and Nolan","qualityScore":9,"lon":149.02952575683594,"maxOccupancy":2,"lat":-35.21250915527344},{"locationScore":1,"price":80,"nights":16,"name":"Klein Inc","qualityScore":1,"lon":149.07455444335938,"maxOccupancy":1,"lat":-35.175392150878906},{"locationScore":8,"price":405,"nights":6,"name":"Heidenreich LLC","qualityScore":1,"lon":149.06063842773438,"maxOccupancy":4,"lat":-35.119773864746094},{"locationScore":3,"price":330,"nights":6,"name":"Rohan, Muller and Ryan","qualityScore":6,"lon":149.07240295410156,"maxOccupancy":4,"lat":-35.14118957519531},{"locationScore":8,"price":495,"nights":18,"name":"Tillman Group","qualityScore":4,"lon":149.0364227294922,"maxOccupancy":5,"lat":-35.18400955200195},{"locationScore":4,"price":445,"nights":3,"name":"Rowe Group","qualityScore":9,"lon":149.03060913085938,"maxOccupancy":4,"lat":-35.27056121826172},{"locationScore":1,"price":125,"nights":27,"name":"Kris, Smith and Veum","qualityScore":1,"lon":149.09739685058594,"maxOccupancy":4,"lat":-35.28068542480469},{"locationScore":2,"price":210,"nights":1,"name":"Kub, Hoeger and Fritsch","qualityScore":4,"lon":149.0142364501953,"maxOccupancy":2,"lat":-35.248687744140625},{"locationScore":9,"price":520,"nights":11,"name":"Gleichner Group","qualityScore":4,"lon":149.0621795654297,"maxOccupancy":4,"lat":-35.371131896972656},{"locationScore":8,"price":420,"nights":23,"name":"Schulist, Kovacek and Metz","qualityScore":1,"lon":149.05218505859375,"maxOccupancy":5,"lat":-35.320133209228516},{"locationScore":3,"price":245,"nights":12,"name":"Gislason-Terry","qualityScore":2,"lon":149.02195739746094,"maxOccupancy":5,"lat":-35.3000602722168},{"locationScore":8,"price":560,"nights":11,"name":"Torphy LLC","qualityScore":9,"lon":149.04478454589844,"maxOccupancy":1,"lat":-35.24811935424805},{"locationScore":5,"price":430,"nights":24,"name":"Murazik-Waelchi","qualityScore":8,"lon":149.08285522460938,"maxOccupancy":2,"lat":-35.15068435668945},{"locationScore":4,"price":215,"nights":8,"name":"McDermott, Pagac and Crona","qualityScore":1,"lon":149.01910400390625,"maxOccupancy":2,"lat":-35.39675521850586},{"locationScore":2,"price":135,"nights":4,"name":"Langworth, Upton and Buckridge","qualityScore":1,"lon":149.02073669433594,"maxOccupancy":2,"lat":-35.27385330200195},{"locationScore":5,"price":360,"nights":17,"name":"Gottlieb, Fisher and Weimann","qualityScore":4,"lon":149.05404663085938,"maxOccupancy":4,"lat":-35.123390197753906},{"locationScore":1,"price":290,"nights":12,"name":"Shields Group","qualityScore":7,"lon":149.05856323242188,"maxOccupancy":5,"lat":-35.367759704589844},{"locationScore":9,"price":400,"nights":6,"name":"Nicolas Inc","qualityScore":1,"lon":149.0320281982422,"maxOccupancy":1,"lat":-35.13367462158203},{"locationScore":6,"price":380,"nights":8,"name":"Gislason-McLaughlin","qualityScore":5,"lon":149.0934295654297,"maxOccupancy":1,"lat":-35.121124267578125},{"locationScore":9,"price":430,"nights":11,"name":"Kohler, Price and Ebert","qualityScore":1,"lon":149.06263732910156,"maxOccupancy":3,"lat":-35.146514892578125},{"locationScore":6,"price":325,"nights":21,"name":"Gaylord LLC","qualityScore":1,"lon":149.09657287597656,"maxOccupancy":4,"lat":-35.32451248168945},{"locationScore":10,"price":440,"nights":10,"name":"Runte, Durgan and Shields","qualityScore":1,"lon":149.02716064453125,"maxOccupancy":1,"lat":-35.38639831542969},{"locationScore":6,"price":365,"nights":28,"name":"Mueller, Orn and Gorczany","qualityScore":2,"lon":149.0658721923828,"maxOccupancy":5,"lat":-35.381996154785156},{"locationScore":3,"price":315,"nights":15,"name":"Predovic Group","qualityScore":6,"lon":149.03448486328125,"maxOccupancy":3,"lat":-35.20022201538086},{"locationScore":7,"price":345,"nights":6,"name":"Von LLC","qualityScore":2,"lon":149.0615692138672,"maxOccupancy":1,"lat":-35.37685012817383},{"locationScore":8,"price":545,"nights":5,"name":"Barrows Group","qualityScore":6,"lon":149.02191162109375,"maxOccupancy":5,"lat":-35.184478759765625},{"locationScore":10,"price":610,"nights":19,"name":"Botsford-Abshire","qualityScore":6,"lon":149.06138610839844,"maxOccupancy":4,"lat":-35.26815414428711},{"locationScore":8,"price":600,"nights":21,"name":"Labadie Group","qualityScore":10,"lon":149.0548553466797,"maxOccupancy":2,"lat":-35.14330291748047},{"locationScore":2,"price":120,"nights":9,"name":"Heaney Inc","qualityScore":1,"lon":149.09426879882812,"maxOccupancy":1,"lat":-35.356571197509766},{"locationScore":9,"price":480,"nights":18,"name":"Robel Group","qualityScore":3,"lon":149.04437255859375,"maxOccupancy":3,"lat":-35.131282806396484},{"locationScore":4,"price":470,"nights":28,"name":"Fay LLC","qualityScore":10,"lon":149.09042358398438,"maxOccupancy":4,"lat":-35.19352722167969},{"locationScore":4,"price":275,"nights":5,"name":"Swaniawski LLC","qualityScore":1,"lon":149.0394287109375,"maxOccupancy":6,"lat":-35.107017517089844},{"locationScore":2,"price":185,"nights":10,"name":"Streich-Jacobi","qualityScore":3,"lon":149.00897216796875,"maxOccupancy":2,"lat":-35.23228454589844},{"locationScore":9,"price":575,"nights":4,"name":"Beier Inc","qualityScore":8,"lon":149.032470703125,"maxOccupancy":1,"lat":-35.34003829956055},{"locationScore":8,"price":390,"nights":3,"name":"Kerluke, Moen and Adams","qualityScore":1,"lon":149.09120178222656,"maxOccupancy":3,"lat":-35.197288513183594},{"locationScore":4,"price":345,"nights":1,"name":"Jaskolski-Streich","qualityScore":5,"lon":149.02420043945312,"maxOccupancy":4,"lat":-35.21815872192383},{"locationScore":7,"price":475,"nights":12,"name":"Hickle Group","qualityScore":6,"lon":149.05406188964844,"maxOccupancy":3,"lat":-35.37104797363281},{"locationScore":7,"price":490,"nights":4,"name":"Kemmer Inc","qualityScore":6,"lon":149.0983123779297,"maxOccupancy":4,"lat":-35.253543853759766},{"locationScore":1,"price":285,"nights":28,"name":"King-West","qualityScore":8,"lon":149.0814971923828,"maxOccupancy":3,"lat":-35.25927734375},{"locationScore":10,"price":605,"nights":13,"name":"Schuppe LLC","qualityScore":7,"lon":149.09771728515625,"maxOccupancy":2,"lat":-35.329795837402344},{"locationScore":5,"price":365,"nights":13,"name":"Kessler Inc","qualityScore":3,"lon":149.03457641601562,"maxOccupancy":6,"lat":-35.16463851928711},{"locationScore":3,"price":300,"nights":11,"name":"Miller LLC","qualityScore":6,"lon":149.04232788085938,"maxOccupancy":2,"lat":-35.2818717956543},{"locationScore":7,"price":500,"nights":13,"name":"Gutmann and Sons","qualityScore":7,"lon":149.06149291992188,"maxOccupancy":3,"lat":-35.398773193359375},{"locationScore":3,"price":400,"nights":18,"name":"Wilkinson LLC","qualityScore":10,"lon":149.07757568359375,"maxOccupancy":2,"lat":-35.10438537597656},{"locationScore":9,"price":625,"nights":19,"name":"Kunze-Sporer","qualityScore":7,"lon":149.0157928466797,"maxOccupancy":6,"lat":-35.239192962646484},{"locationScore":1,"price":240,"nights":25,"name":"Gulgowski LLC","qualityScore":5,"lon":149.06863403320312,"maxOccupancy":5,"lat":-35.207489013671875},{"locationScore":6,"price":380,"nights":4,"name":"Prohaska-Legros","qualityScore":5,"lon":149.0406494140625,"maxOccupancy":1,"lat":-35.34157943725586},{"locationScore":5,"price":415,"nights":22,"name":"Watsica Inc","qualityScore":5,"lon":149.00120544433594,"maxOccupancy":6,"lat":-35.33556365966797},{"locationScore":5,"price":295,"nights":16,"name":"Cartwright, Swaniawski and Bergnaum","qualityScore":2,"lon":149.04832458496094,"maxOccupancy":3,"lat":-35.37525177001953},{"locationScore":3,"price":305,"nights":1,"name":"Schinner, Kuvalis and Schuster","qualityScore":5,"lon":149.0971221923828,"maxOccupancy":4,"lat":-35.25054931640625},{"locationScore":8,"price":475,"nights":2,"name":"Beier, Witting and O'Hara","qualityScore":5,"lon":149.04783630371094,"maxOccupancy":2,"lat":-35.237606048583984},{"locationScore":8,"price":595,"nights":5,"name":"Towne-Kuphal","qualityScore":8,"lon":149.09739685058594,"maxOccupancy":5,"lat":-35.214717864990234},{"locationScore":9,"price":430,"nights":7,"name":"Legros-D'Amore","qualityScore":1,"lon":149.08094787597656,"maxOccupancy":3,"lat":-35.32624816894531},{"locationScore":1,"price":160,"nights":23,"name":"Emard LLC","qualityScore":3,"lon":149.09169006347656,"maxOccupancy":3,"lat":-35.35850143432617},{"locationScore":1,"price":179,"nights":13,"name":"Berge-Barrows","qualityScore":2,"lon":149.02345275878906,"maxOccupancy":6,"lat":-35.3114013671875},{"locationScore":6,"price":440,"nights":10,"name":"Quigley-Powlowski","qualityScore":5,"lon":149.02957153320312,"maxOccupancy":5,"lat":-35.246543884277344},{"locationScore":10,"price":645,"nights":4,"name":"Oberbrunner LLC","qualityScore":8,"lon":149.05540466308594,"maxOccupancy":3,"lat":-35.238094329833984},{"locationScore":6,"price":500,"nights":16,"name":"Pacocha LLC","qualityScore":8,"lon":149.0243377685547,"maxOccupancy":4,"lat":-35.38356399536133},{"locationScore":8,"price":630,"nights":15,"name":"Kovacek, Funk and Lockman","qualityScore":10,"lon":149.08445739746094,"maxOccupancy":4,"lat":-35.13145446777344},{"locationScore":1,"price":305,"nights":10,"name":"Heller, Lowe and Schmitt","qualityScore":10,"lon":149.05441284179688,"maxOccupancy":1,"lat":-35.29369354248047},{"locationScore":10,"price":540,"nights":23,"name":"Emmerich, Armstrong and Walsh","qualityScore":5,"lon":149.0094757080078,"maxOccupancy":1,"lat":-35.339759826660156},{"locationScore":4,"price":430,"nights":15,"name":"Muller, VonRueden and Weissnat","qualityScore":9,"lon":149.0745391845703,"maxOccupancy":3,"lat":-35.139400482177734},{"locationScore":9,"price":400,"nights":15,"name":"Dickens LLC","qualityScore":1,"lon":149.09921264648438,"maxOccupancy":1,"lat":-35.190757751464844},{"locationScore":3,"price":235,"nights":4,"name":"Mitchell, Feest and Kerluke","qualityScore":4,"lon":149.0200653076172,"maxOccupancy":1,"lat":-35.284889221191406},{"locationScore":8,"price":375,"nights":30,"name":"Armstrong and Sons","qualityScore":1,"lon":149.04876708984375,"maxOccupancy":2,"lat":-35.395469665527344},{"locationScore":6,"price":500,"nights":21,"name":"Keeling Inc","qualityScore":8,"lon":149.0203094482422,"maxOccupancy":4,"lat":-35.384002685546875},{"locationScore":2,"price":420,"nights":5,"name":"Gleason and Sons","qualityScore":10,"lon":149.0073699951172,"maxOccupancy":6,"lat":-35.100624084472656},{"locationScore":1,"price":275,"nights":1,"name":"Jakubowski Inc","qualityScore":7,"lon":149.03750610351562,"maxOccupancy":4,"lat":-35.253273010253906},{"locationScore":4,"price":400,"nights":3,"name":"Toy-Haley","qualityScore":6,"lon":149.085693359375,"maxOccupancy":6,"lat":-35.18289566040039},{"locationScore":10,"price":565,"nights":6,"name":"Jaskolski Group","qualityScore":6,"lon":149.01296997070312,"maxOccupancy":1,"lat":-35.35963821411133},{"locationScore":10,"price":725,"nights":12,"name":"Lockman-Boyle","qualityScore":10,"lon":149.07223510742188,"maxOccupancy":5,"lat":-35.11268615722656},{"locationScore":2,"price":275,"nights":25,"name":"Mitchell, Renner and Heller","qualityScore":6,"lon":149.0949249267578,"maxOccupancy":3,"lat":-35.3820686340332},{"locationScore":10,"price":700,"nights":30,"name":"Hauck and Sons","qualityScore":9,"lon":149.085205078125,"maxOccupancy":5,"lat":-35.28850173950195},{"locationScore":5,"price":480,"nights":26,"name":"Stehr, Strosin and Glover","qualityScore":10,"lon":149.041259765625,"maxOccupancy":2,"lat":-35.132896423339844},{"locationScore":4,"price":470,"nights":25,"name":"Kassulke-O'Connell","qualityScore":10,"lon":149.0577392578125,"maxOccupancy":4,"lat":-35.29983901977539},{"locationScore":7,"price":370,"nights":23,"name":"Flatley-Lang","qualityScore":3,"lon":149.05084228515625,"maxOccupancy":1,"lat":-35.22331237792969},{"locationScore":2,"price":120,"nights":12,"name":"Okuneva, McClure and Reichel","qualityScore":1,"lon":149.00047302246094,"maxOccupancy":1,"lat":-35.191184997558594},{"locationScore":3,"price":230,"nights":25,"name":"Shields, Haley and Harvey","qualityScore":2,"lon":149.08209228515625,"maxOccupancy":4,"lat":-35.11775588989258},{"locationScore":6,"price":430,"nights":29,"name":"Rath Group","qualityScore":7,"lon":149.08047485351562,"maxOccupancy":1,"lat":-35.14598083496094},{"locationScore":1,"price":140,"nights":4,"name":"Halvorson, Towne and McKenzie","qualityScore":1,"lon":149.03451538085938,"maxOccupancy":5,"lat":-35.32209777832031},{"locationScore":5,"price":484,"nights":24,"name":"Langworth Inc","qualityScore":9,"lon":149.02935791015625,"maxOccupancy":4,"lat":-35.23854064941406},{"locationScore":9,"price":595,"nights":10,"name":"Kiehn and Sons","qualityScore":7,"lon":149.0047607421875,"maxOccupancy":4,"lat":-35.13312911987305},{"locationScore":3,"price":215,"nights":12,"name":"Gutmann, Flatley and Hoeger","qualityScore":2,"lon":149.0985107421875,"maxOccupancy":3,"lat":-35.216548919677734},{"locationScore":6,"price":280,"nights":18,"name":"Lemke-Satterfield","qualityScore":1,"lon":149.00360107421875,"maxOccupancy":1,"lat":-35.22352981567383},{"locationScore":3,"price":330,"nights":21,"name":"Ritchie, Koch and Funk","qualityScore":6,"lon":149.07225036621094,"maxOccupancy":4,"lat":-35.306243896484375},{"locationScore":3,"price":220,"nights":13,"name":"Watsica, Bartoletti and Barton","qualityScore":1,"lon":149.04417419433594,"maxOccupancy":5,"lat":-35.14247131347656},{"locationScore":1,"price":145,"nights":11,"name":"Lakin Inc","qualityScore":3,"lon":149.0625457763672,"maxOccupancy":2,"lat":-35.30708312988281},{"locationScore":7,"price":360,"nights":13,"name":"Witting-Johns","qualityScore":2,"lon":149.05886840820312,"maxOccupancy":2,"lat":-35.262664794921875},{"locationScore":7,"price":420,"nights":17,"name":"Langosh LLC","qualityScore":2,"lon":149.02584838867188,"maxOccupancy":6,"lat":-35.17036437988281},{"locationScore":5,"price":515,"nights":9,"name":"Wyman LLC","qualityScore":9,"lon":149.0835418701172,"maxOccupancy":6,"lat":-35.14778137207031},{"locationScore":7,"price":395,"nights":11,"name":"Mills-Dach","qualityScore":1,"lon":149.07337951660156,"maxOccupancy":6,"lat":-35.19564437866211},{"locationScore":4,"price":245,"nights":15,"name":"Pacocha-Ullrich","qualityScore":1,"lon":149.0928497314453,"maxOccupancy":4,"lat":-35.23861312866211},{"locationScore":9,"price":595,"nights":29,"name":"Dach-Corwin","qualityScore":7,"lon":149.0037384033203,"maxOccupancy":4,"lat":-35.215030670166016},{"locationScore":4,"price":409,"nights":15,"name":"Bruen, Runolfsson and Jacobs","qualityScore":7,"lon":149.092529296875,"maxOccupancy":5,"lat":-35.16276550292969},{"locationScore":2,"price":135,"nights":12,"name":"Wiza, Bauch and Huels","qualityScore":1,"lon":149.05923461914062,"maxOccupancy":2,"lat":-35.2562370300293},{"locationScore":9,"price":470,"nights":1,"name":"Cronin, Ritchie and Pagac","qualityScore":2,"lon":149.05569458007812,"maxOccupancy":4,"lat":-35.35337829589844},{"locationScore":4,"price":500,"nights":17,"name":"Fisher-Schmidt","qualityScore":10,"lon":149.0338897705078,"maxOccupancy":6,"lat":-35.34331130981445},{"locationScore":2,"price":254,"nights":30,"name":"Lueilwitz Group","qualityScore":4,"lon":149.04798889160156,"maxOccupancy":5,"lat":-35.170833587646484},{"locationScore":4,"price":360,"nights":3,"name":"Durgan and Sons","qualityScore":5,"lon":149.01109313964844,"maxOccupancy":5,"lat":-35.32521057128906},{"locationScore":10,"price":655,"nights":3,"name":"Lynch-Tromp","qualityScore":9,"lon":149.05490112304688,"maxOccupancy":2,"lat":-35.35313034057617},{"locationScore":10,"price":650,"nights":18,"name":"Schuppe Inc","qualityScore":7,"lon":149.04701232910156,"maxOccupancy":5,"lat":-35.15806198120117},{"locationScore":8,"price":480,"nights":12,"name":"Botsford, Paucek and Dibbert","qualityScore":4,"lon":149.02566528320312,"maxOccupancy":4,"lat":-35.182411193847656},{"locationScore":6,"price":320,"nights":2,"name":"Hahn-Ebert","qualityScore":2,"lon":149.0904541015625,"maxOccupancy":2,"lat":-35.3503303527832},{"locationScore":2,"price":309,"nights":14,"name":"Gleichner, Murphy and Feest","qualityScore":8,"lon":149.06771850585938,"maxOccupancy":2,"lat":-35.34524154663086},{"locationScore":9,"price":555,"nights":19,"name":"Mitchell, Ortiz and Renner","qualityScore":6,"lon":149.03439331054688,"maxOccupancy":3,"lat":-35.23125457763672},{"locationScore":10,"price":455,"nights":13,"name":"Rau-Prosacco","qualityScore":1,"lon":149.08935546875,"maxOccupancy":2,"lat":-35.143089294433594},{"locationScore":8,"price":500,"nights":12,"name":"Willms, Halvorson and Boehm","qualityScore":6,"lon":149.05406188964844,"maxOccupancy":2,"lat":-35.193180084228516},{"locationScore":8,"price":484,"nights":24,"name":"Schulist, Ernser and Smith","qualityScore":3,"lon":149.03553771972656,"maxOccupancy":6,"lat":-35.37784957885742},{"locationScore":2,"price":165,"nights":6,"name":"Tillman Group","qualityScore":1,"lon":149.0238800048828,"maxOccupancy":4,"lat":-35.385223388671875},{"locationScore":7,"price":465,"nights":15,"name":"Vandervort-Gislason","qualityScore":5,"lon":149.02098083496094,"maxOccupancy":4,"lat":-35.30928039550781},{"locationScore":2,"price":395,"nights":26,"name":"Robel, Hermiston and Wisoky","qualityScore":9,"lon":149.02366638183594,"maxOccupancy":6,"lat":-35.3995475769043},{"locationScore":1,"price":250,"nights":23,"name":"Hackett-Kreiger","qualityScore":6,"lon":149.027099609375,"maxOccupancy":4,"lat":-35.160484313964844},{"locationScore":3,"price":430,"nights":19,"name":"Shields-Rowe","qualityScore":10,"lon":149.0942840576172,"maxOccupancy":4,"lat":-35.16756820678711},{"locationScore":5,"price":405,"nights":29,"name":"Lehner-Becker","qualityScore":7,"lon":149.02981567382812,"maxOccupancy":2,"lat":-35.301246643066406},{"locationScore":8,"price":660,"nights":6,"name":"Lindgren-Crona","qualityScore":10,"lon":149.06434631347656,"maxOccupancy":6,"lat":-35.399627685546875},{"locationScore":3,"price":350,"nights":14,"name":"Reinger-Bogisich","qualityScore":8,"lon":149.00448608398438,"maxOccupancy":2,"lat":-35.27412414550781},{"locationScore":10,"price":590,"nights":25,"name":"Steuber and Sons","qualityScore":7,"lon":149.02398681640625,"maxOccupancy":1,"lat":-35.312530517578125},{"locationScore":9,"price":450,"nights":18,"name":"Ortiz-Weimann","qualityScore":3,"lon":149.05186462402344,"maxOccupancy":1,"lat":-35.16487503051758},{"locationScore":10,"price":505,"nights":9,"name":"Schoen, Kutch and Torp","qualityScore":3,"lon":149.0248565673828,"maxOccupancy":2,"lat":-35.35021209716797},{"locationScore":1,"price":315,"nights":27,"name":"Schroeder LLC","qualityScore":8,"lon":149.0,"maxOccupancy":5,"lat":-35.366920471191406},{"locationScore":4,"price":340,"nights":8,"name":"Moen, Keeling and Rempel","qualityScore":6,"lon":149.04782104492188,"maxOccupancy":2,"lat":-35.245933532714844},{"locationScore":6,"price":565,"nights":21,"name":"Crooks, Wolff and Bradtke","qualityScore":10,"lon":149.00160217285156,"maxOccupancy":5,"lat":-35.22294998168945},{"locationScore":9,"price":575,"nights":23,"name":"Reilly, Gulgowski and Rutherford","qualityScore":8,"lon":149.03598022460938,"maxOccupancy":1,"lat":-35.18441390991211},{"locationScore":9,"price":455,"nights":28,"name":"Beer-Cruickshank","qualityScore":2,"lon":149.01451110839844,"maxOccupancy":3,"lat":-35.358001708984375},{"locationScore":7,"price":445,"nights":16,"name":"Brakus, Schroeder and Hauck","qualityScore":3,"lon":149.0780029296875,"maxOccupancy":6,"lat":-35.30856704711914},{"locationScore":3,"price":300,"nights":30,"name":"Balistreri Inc","qualityScore":6,"lon":149.0677032470703,"maxOccupancy":2,"lat":-35.174407958984375},{"locationScore":9,"price":685,"nights":13,"name":"Auer Group","qualityScore":10,"lon":149.057861328125,"maxOccupancy":5,"lat":-35.29099655151367},{"locationScore":2,"price":225,"nights":19,"name":"Stamm, Jenkins and Legros","qualityScore":4,"lon":149.0791473388672,"maxOccupancy":3,"lat":-35.37593078613281},{"locationScore":8,"price":484,"nights":7,"name":"Dicki, Heaney and Jacobson","qualityScore":3,"lon":149.0294952392578,"maxOccupancy":6,"lat":-35.34313201904297},{"locationScore":9,"price":520,"nights":20,"name":"McGlynn and Sons","qualityScore":4,"lon":149.05120849609375,"maxOccupancy":4,"lat":-35.10577392578125},{"locationScore":10,"price":545,"nights":22,"name":"Collier-Hodkiewicz","qualityScore":4,"lon":149.01681518554688,"maxOccupancy":3,"lat":-35.305076599121094},{"locationScore":10,"price":540,"nights":12,"name":"Shields LLC","qualityScore":5,"lon":149.08053588867188,"maxOccupancy":1,"lat":-35.340641021728516},{"locationScore":8,"price":484,"nights":11,"name":"Gerlach, McLaughlin and Erdman","qualityScore":3,"lon":149.07785034179688,"maxOccupancy":6,"lat":-35.11388397216797},{"locationScore":9,"price":610,"nights":3,"name":"Cole Group","qualityScore":7,"lon":149.0305633544922,"maxOccupancy":5,"lat":-35.212886810302734},{"locationScore":1,"price":150,"nights":24,"name":"Becker, Gottlieb and Fay","qualityScore":2,"lon":149.0733642578125,"maxOccupancy":4,"lat":-35.25483322143555},{"locationScore":6,"price":540,"nights":9,"name":"Orn-Dach","qualityScore":9,"lon":149.0371551513672,"maxOccupancy":5,"lat":-35.3582763671875},{"locationScore":6,"price":435,"nights":11,"name":"Heller-Marquardt","qualityScore":6,"lon":149.06861877441406,"maxOccupancy":3,"lat":-35.10478973388672},{"locationScore":2,"price":200,"nights":12,"name":"Runte, Ankunding and Rodriguez","qualityScore":3,"lon":149.00099182128906,"maxOccupancy":3,"lat":-35.393001556396484},{"locationScore":9,"price":525,"nights":20,"name":"Cole-O'Hara","qualityScore":3,"lon":149.0185089111328,"maxOccupancy":6,"lat":-35.27457046508789},{"locationScore":8,"price":509,"nights":27,"name":"Aufderhar-Mante","qualityScore":7,"lon":149.02932739257812,"maxOccupancy":1,"lat":-35.23676681518555},{"locationScore":8,"price":465,"nights":24,"name":"Macejkovic LLC","qualityScore":4,"lon":149.09161376953125,"maxOccupancy":3,"lat":-35.27207565307617},{"locationScore":8,"price":560,"nights":20,"name":"Kautzer-Cronin","qualityScore":9,"lon":149.07801818847656,"maxOccupancy":1,"lat":-35.15754699707031},{"locationScore":10,"price":560,"nights":18,"name":"Pacocha LLC","qualityScore":4,"lon":149.00335693359375,"maxOccupancy":4,"lat":-35.363765716552734},{"locationScore":5,"price":525,"nights":12,"name":"Zulauf-Champlin","qualityScore":10,"lon":149.0287322998047,"maxOccupancy":5,"lat":-35.3468132019043},{"locationScore":1,"price":179,"nights":30,"name":"Gulgowski-Romaguera","qualityScore":5,"lon":149.02999877929688,"maxOccupancy":1,"lat":-35.21011734008789},{"locationScore":10,"price":665,"nights":6,"name":"O'Hara-Kub","qualityScore":7,"lon":149.0741424560547,"maxOccupancy":6,"lat":-35.1340446472168},{"locationScore":6,"price":515,"nights":27,"name":"Rempel LLC","qualityScore":8,"lon":149.06825256347656,"maxOccupancy":5,"lat":-35.14374542236328},{"locationScore":10,"price":505,"nights":26,"name":"Runte, Simonis and Bergstrom","qualityScore":3,"lon":149.04478454589844,"maxOccupancy":2,"lat":-35.24769973754883},{"locationScore":8,"price":360,"nights":22,"name":"Barrows-Huel","qualityScore":1,"lon":149.09512329101562,"maxOccupancy":1,"lat":-35.12590408325195},{"locationScore":3,"price":365,"nights":19,"name":"Davis LLC","qualityScore":8,"lon":149.0559844970703,"maxOccupancy":3,"lat":-35.37205123901367},{"locationScore":8,"price":550,"nights":8,"name":"Jacobs LLC","qualityScore":8,"lon":149.0522003173828,"maxOccupancy":2,"lat":-35.13896179199219},{"locationScore":3,"price":310,"nights":10,"name":"Maggio-Hahn","qualityScore":4,"lon":149.00437927246094,"maxOccupancy":6,"lat":-35.27029037475586},{"locationScore":3,"price":270,"nights":22,"name":"Reynolds-Franecki","qualityScore":3,"lon":149.0607452392578,"maxOccupancy":5,"lat":-35.306575775146484},{"locationScore":5,"price":375,"nights":13,"name":"Dare, Upton and Smitham","qualityScore":4,"lon":149.06524658203125,"maxOccupancy":5,"lat":-35.24253463745117},{"locationScore":2,"price":175,"nights":18,"name":"Klein LLC","qualityScore":2,"lon":149.03060913085938,"maxOccupancy":3,"lat":-35.288291931152344},{"locationScore":6,"price":360,"nights":22,"name":"Bosco, Zulauf and Kuvalis","qualityScore":3,"lon":149.0096435546875,"maxOccupancy":3,"lat":-35.1007080078125},{"locationScore":7,"price":545,"nights":13,"name":"Grady and Sons","qualityScore":10,"lon":149.01756286621094,"maxOccupancy":1,"lat":-35.107078552246094},{"locationScore":5,"price":280,"nights":15,"name":"Witting Group","qualityScore":2,"lon":149.0409393310547,"maxOccupancy":2,"lat":-35.22282028198242},{"locationScore":5,"price":484,"nights":29,"name":"Schimmel Inc","qualityScore":9,"lon":149.0501708984375,"maxOccupancy":4,"lat":-35.373260498046875},{"locationScore":6,"price":555,"nights":27,"name":"Olson-Anderson","qualityScore":9,"lon":149.07371520996094,"maxOccupancy":6,"lat":-35.23735427856445},{"locationScore":8,"price":440,"nights":1,"name":"VonRueden-Welch","qualityScore":3,"lon":149.07781982421875,"maxOccupancy":3,"lat":-35.18061447143555},{"locationScore":2,"price":170,"nights":21,"name":"Douglas Group","qualityScore":3,"lon":149.01266479492188,"maxOccupancy":1,"lat":-35.189762115478516},{"locationScore":9,"price":505,"nights":17,"name":"Fisher, Christiansen and Reichel","qualityScore":4,"lon":149.00315856933594,"maxOccupancy":3,"lat":-35.23487854003906},{"locationScore":7,"price":505,"nights":12,"name":"Borer LLC","qualityScore":6,"lon":149.01861572265625,"maxOccupancy":5,"lat":-35.20121765136719},{"locationScore":4,"price":475,"nights":5,"name":"Ritchie, Tromp and Rippin","qualityScore":9,"lon":149.0734405517578,"maxOccupancy":6,"lat":-35.223167419433594},{"locationScore":9,"price":640,"nights":10,"name":"Hilpert LLC","qualityScore":10,"lon":149.0454559326172,"maxOccupancy":2,"lat":-35.302947998046875},{"locationScore":8,"price":620,"nights":7,"name":"Bergstrom Group","qualityScore":9,"lon":149.0106964111328,"maxOccupancy":5,"lat":-35.2383918762207},{"locationScore":3,"price":380,"nights":2,"name":"Steuber LLC","qualityScore":8,"lon":149.03123474121094,"maxOccupancy":4,"lat":-35.16493225097656},{"locationScore":1,"price":305,"nights":7,"name":"Rutherford-Leuschke","qualityScore":10,"lon":149.00616455078125,"maxOccupancy":1,"lat":-35.30540466308594},{"locationScore":1,"price":130,"nights":28,"name":"Douglas, Murphy and Schulist","qualityScore":3,"lon":149.0045928955078,"maxOccupancy":1,"lat":-35.146583557128906},{"locationScore":4,"price":390,"nights":5,"name":"Koch, Bednar and Heidenreich","qualityScore":8,"lon":149.0641632080078,"maxOccupancy":2,"lat":-35.33633804321289},{"locationScore":9,"price":450,"nights":21,"name":"Kuhn, Kuphal and Bode","qualityScore":3,"lon":149.01365661621094,"maxOccupancy":1,"lat":-35.12960433959961},{"locationScore":3,"price":285,"nights":30,"name":"Morissette, Mayert and Hirthe","qualityScore":3,"lon":149.02804565429688,"maxOccupancy":6,"lat":-35.22013473510742},{"locationScore":7,"price":580,"nights":19,"name":"Williamson-Howell","qualityScore":9,"lon":149.076416015625,"maxOccupancy":5,"lat":-35.313961029052734},{"locationScore":10,"price":570,"nights":6,"name":"Weber-Mertz","qualityScore":5,"lon":149.007080078125,"maxOccupancy":3,"lat":-35.37424850463867},{"locationScore":7,"price":390,"nights":24,"name":"Hyatt-Rippin","qualityScore":2,"lon":149.0322723388672,"maxOccupancy":4,"lat":-35.32007598876953},{"locationScore":5,"price":490,"nights":27,"name":"Witting-Boehm","qualityScore":8,"lon":149.05210876464844,"maxOccupancy":6,"lat":-35.381591796875},{"locationScore":2,"price":190,"nights":24,"name":"Schmidt Inc","qualityScore":2,"lon":149.0252685546875,"maxOccupancy":4,"lat":-35.26150131225586},{"locationScore":7,"price":500,"nights":12,"name":"Braun, Jacobson and Gerlach","qualityScore":7,"lon":149.02622985839844,"maxOccupancy":3,"lat":-35.28053665161133},{"locationScore":1,"price":305,"nights":5,"name":"Graham and Sons","qualityScore":7,"lon":149.0664825439453,"maxOccupancy":6,"lat":-35.2891731262207},{"locationScore":6,"price":410,"nights":20,"name":"Emard Group","qualityScore":5,"lon":149.01878356933594,"maxOccupancy":3,"lat":-35.374107360839844},{"locationScore":7,"price":550,"nights":10,"name":"Bosco-Welch","qualityScore":9,"lon":149.0897979736328,"maxOccupancy":3,"lat":-35.230995178222656},{"locationScore":8,"price":475,"nights":1,"name":"Goyette-Quigley","qualityScore":5,"lon":149.0599365234375,"maxOccupancy":2,"lat":-35.282379150390625},{"locationScore":1,"price":120,"nights":2,"name":"Schowalter LLC","qualityScore":2,"lon":149.08230590820312,"maxOccupancy":2,"lat":-35.21945571899414},{"locationScore":8,"price":565,"nights":21,"name":"Rohan-Dibbert","qualityScore":8,"lon":149.07192993164062,"maxOccupancy":3,"lat":-35.262107849121094},{"locationScore":6,"price":465,"nights":29,"name":"Bode, Botsford and Stiedemann","qualityScore":6,"lon":149.02328491210938,"maxOccupancy":5,"lat":-35.23792266845703},{"locationScore":6,"price":395,"nights":3,"name":"Anderson-Haley","qualityScore":5,"lon":149.0239715576172,"maxOccupancy":2,"lat":-35.19284439086914},{"locationScore":8,"price":610,"nights":26,"name":"Homenick-Bernhard","qualityScore":8,"lon":149.00897216796875,"maxOccupancy":6,"lat":-35.28694534301758},{"locationScore":9,"price":605,"nights":27,"name":"Wolff-Hettinger","qualityScore":8,"lon":149.02963256835938,"maxOccupancy":3,"lat":-35.1407356262207},{"locationScore":1,"price":315,"nights":23,"name":"McGlynn-Barton","qualityScore":8,"lon":149.06137084960938,"maxOccupancy":5,"lat":-35.15159606933594},{"locationScore":2,"price":270,"nights":19,"name":"Roberts LLC","qualityScore":4,"lon":149.00115966796875,"maxOccupancy":6,"lat":-35.3210563659668},{"locationScore":7,"price":509,"nights":29,"name":"Champlin, Luettgen and Jacobson","qualityScore":8,"lon":149.07720947265625,"maxOccupancy":2,"lat":-35.3056526184082},{"locationScore":6,"price":505,"nights":4,"name":"Ryan, Gerhold and Bergstrom","qualityScore":10,"lon":149.07020568847656,"maxOccupancy":1,"lat":-35.22709655761719},{"locationScore":3,"price":380,"nights":18,"name":"Armstrong and Sons","qualityScore":8,"lon":149.05819702148438,"maxOccupancy":4,"lat":-35.348426818847656},{"locationScore":1,"price":235,"nights":30,"name":"Howell, Brown and Armstrong","qualityScore":6,"lon":149.03956604003906,"maxOccupancy":3,"lat":-35.266841888427734},{"locationScore":1,"price":95,"nights":20,"name":"Ferry-Rutherford","qualityScore":1,"lon":149.08670043945312,"maxOccupancy":2,"lat":-35.303955078125},{"locationScore":8,"price":465,"nights":19,"name":"Schowalter-Johns","qualityScore":4,"lon":149.09083557128906,"maxOccupancy":3,"lat":-35.365867614746094},{"locationScore":6,"price":340,"nights":2,"name":"Hand-Jacobson","qualityScore":1,"lon":149.06736755371094,"maxOccupancy":5,"lat":-35.303680419921875},{"locationScore":3,"price":385,"nights":18,"name":"Rutherford Inc","qualityScore":10,"lon":149.05567932128906,"maxOccupancy":1,"lat":-35.374107360839844},{"locationScore":2,"price":370,"nights":16,"name":"Jacobson, Stroman and Jerde","qualityScore":8,"lon":149.0076446533203,"maxOccupancy":6,"lat":-35.39433288574219},